{
"type": "FeatureCollection",
"name": "All_Zipcodes_and_PO_Box_as_Centroids_for_King_County___zipcode_all_point",
"crs": { "type": "name", "properties": { "name": "urn:ogc:def:crs:OGC:1.3:CRS84" } },
"features": [
{ "type": "Feature", "properties": { "OBJECTID": 1, "ZIP": 98009, "ZIPCODE": "98009", "COUNTY": "033", "ZIP_TYPE": "PO Box", "PREFERRED_CITY": "BELLEVUE", "FEATURE_SOURCE": "Placed Point", "COUNTY_NAME": "King County" }, "geometry": { "type": "Point", "coordinates": [ -122.202454356642079, 47.62060126288501 ] } },
{ "type": "Feature", "properties": { "OBJECTID": 2, "ZIP": 98015, "ZIPCODE": "98015", "COUNTY": "033", "ZIP_TYPE": "PO Box", "PREFERRED_CITY": "BELLEVUE", "FEATURE_SOURCE": "Placed Point", "COUNTY_NAME": "King County" }, "geometry": { "type": "Point", "coordinates": [ -122.186795283234304, 47.611861281918955 ] } },
{ "type": "Feature", "properties": { "OBJECTID": 3, "ZIP": 98025, "ZIPCODE": "98025", "COUNTY": "033", "ZIP_TYPE": "PO Box", "PREFERRED_CITY": "HOBART", "FEATURE_SOURCE": "Placed Point", "COUNTY_NAME": "King County" }, "geometry": { "type": "Point", "coordinates": [ -121.972726333817846, 47.419935343770256 ] } },
{ "type": "Feature", "properties": { "OBJECTID": 4, "ZIP": 98035, "ZIPCODE": "98035", "COUNTY": "033", "ZIP_TYPE": "PO Box", "PREFERRED_CITY": "KENT", "FEATURE_SOURCE": "Placed Point", "COUNTY_NAME": "King County" }, "geometry": { "type": "Point", "coordinates": [ -122.23441579224297, 47.380592394834082 ] } },
{ "type": "Feature", "properties": { "OBJECTID": 5, "ZIP": 98041, "ZIPCODE": "98041", "COUNTY": "033", "ZIP_TYPE": "PO Box", "PREFERRED_CITY": "BOTHELL", "FEATURE_SOURCE": "Placed Point", "COUNTY_NAME": "King County" }, "geometry": { "type": "Point", "coordinates": [ -122.199724352481567, 47.761149872279788 ] } },
{ "type": "Feature", "properties": { "OBJECTID": 6, "ZIP": 98062, "ZIPCODE": "98062", "COUNTY": "033", "ZIP_TYPE": "PO Box", "PREFERRED_CITY": "SEAHURST", "FEATURE_SOURCE": "Placed Point", "COUNTY_NAME": "King County" }, "geometry": { "type": "Point", "coordinates": [ -122.361610249976408, 47.466936901445344 ] } },
{ "type": "Feature", "properties": { "OBJECTID": 7, "ZIP": 98063, "ZIPCODE": "98063", "COUNTY": "033", "ZIP_TYPE": "PO Box", "PREFERRED_CITY": "FEDERAL WAY", "FEATURE_SOURCE": "Placed Point", "COUNTY_NAME": "King County" }, "geometry": { "type": "Point", "coordinates": [ -122.314201649431297, 47.30712777882092 ] } },
{ "type": "Feature", "properties": { "OBJECTID": 8, "ZIP": 98064, "ZIPCODE": "98064", "COUNTY": "033", "ZIP_TYPE": "PO Box", "PREFERRED_CITY": "KENT", "FEATURE_SOURCE": "Placed Point", "COUNTY_NAME": "King County" }, "geometry": { "type": "Point", "coordinates": [ -122.199165066478002, 47.387373098647579 ] } },
{ "type": "Feature", "properties": { "OBJECTID": 9, "ZIP": 98071, "ZIPCODE": "98071", "COUNTY": "033", "ZIP_TYPE": "PO Box", "PREFERRED_CITY": "AUBURN", "FEATURE_SOURCE": "Placed Point", "COUNTY_NAME": "King County" }, "geometry": { "type": "Point", "coordinates": [ -122.230054053042707, 47.310481879153706 ] } },
{ "type": "Feature", "properties": { "OBJECTID": 10, "ZIP": 98083, "ZIPCODE": "98083", "COUNTY": "033", "ZIP_TYPE": "PO Box", "PREFERRED_CITY": "KIRKLAND", "FEATURE_SOURCE": "Placed Point", "COUNTY_NAME": "King County" }, "geometry": { "type": "Point", "coordinates": [ -122.194421233998042, 47.67851851260356 ] } },
{ "type": "Feature", "properties": { "OBJECTID": 11, "ZIP": 98093, "ZIPCODE": "98093", "COUNTY": "033", "ZIP_TYPE": "PO Box", "PREFERRED_CITY": "FEDERAL WAY", "FEATURE_SOURCE": "Placed Point", "COUNTY_NAME": "King County" }, "geometry": { "type": "Point", "coordinates": [ -122.357513187297883, 47.30015300369358 ] } },
{ "type": "Feature", "properties": { "OBJECTID": 12, "ZIP": 98124, "ZIPCODE": "98124", "COUNTY": "033", "ZIP_TYPE": "PO Box", "PREFERRED_CITY": "SEATTLE", "FEATURE_SOURCE": "Placed Point", "COUNTY_NAME": "King County" }, "geometry": { "type": "Point", "coordinates": [ -122.328387427197555, 47.581518417513031 ] } },
{ "type": "Feature", "properties": { "OBJECTID": 13, "ZIP": 98138, "ZIPCODE": "98138", "COUNTY": "033", "ZIP_TYPE": "PO Box", "PREFERRED_CITY": "SEATTLE", "FEATURE_SOURCE": "Placed Point", "COUNTY_NAME": "King County" }, "geometry": { "type": "Point", "coordinates": [ -122.254990389498758, 47.456755637705506 ] } },
{ "type": "Feature", "properties": { "OBJECTID": 14, "ZIP": 98145, "ZIPCODE": "98145", "COUNTY": "033", "ZIP_TYPE": "PO Box", "PREFERRED_CITY": "SEATTLE", "FEATURE_SOURCE": "Placed Point", "COUNTY_NAME": "King County" }, "geometry": { "type": "Point", "coordinates": [ -122.31284486139792, 47.659517025247283 ] } },
{ "type": "Feature", "properties": { "OBJECTID": 15, "ZIP": 98160, "ZIPCODE": "98160", "COUNTY": "033", "ZIP_TYPE": "PO Box", "PREFERRED_CITY": "SEATTLE", "FEATURE_SOURCE": "Placed Point", "COUNTY_NAME": "King County" }, "geometry": { "type": "Point", "coordinates": [ -122.346375176962411, 47.733683398693174 ] } },
{ "type": "Feature", "properties": { "OBJECTID": 16, "ZIP": 98181, "ZIPCODE": "98181", "COUNTY": "033", "ZIP_TYPE": "Unique", "PREFERRED_CITY": "SEATTLE", "FEATURE_SOURCE": "Placed Point", "COUNTY_NAME": "King County" }, "geometry": { "type": "Point", "coordinates": [ -122.338619380061488, 47.611384054644574 ] } },
{ "type": "Feature", "properties": { "OBJECTID": 17, "ZIP": 98185, "ZIPCODE": "98185", "COUNTY": "033", "ZIP_TYPE": "Unique", "PREFERRED_CITY": "SEATTLE", "FEATURE_SOURCE": "Placed Point", "COUNTY_NAME": "King County" }, "geometry": { "type": "Point", "coordinates": [ -122.333624866559433, 47.606268348902965 ] } },
{ "type": "Feature", "properties": { "OBJECTID": 18, "ZIP": 98191, "ZIPCODE": "98191", "COUNTY": "033", "ZIP_TYPE": "Unique", "PREFERRED_CITY": "SEATTLE", "FEATURE_SOURCE": "Placed Point", "COUNTY_NAME": "King County" }, "geometry": { "type": "Point", "coordinates": [ -122.334453982314315, 47.6132078531056 ] } },
{ "type": "Feature", "properties": { "OBJECTID": 19, "ZIP": 98352, "ZIPCODE": "98352", "COUNTY": "053", "ZIP_TYPE": "Unique", "PREFERRED_CITY": "SUMNER", "FEATURE_SOURCE": "Placed Point", "COUNTY_NAME": "Pierce County" }, "geometry": { "type": "Point", "coordinates": [ -122.231312626889178, 47.21641302090373 ] } },
{ "type": "Feature", "properties": { "OBJECTID": 20, "ZIP": 98447, "ZIPCODE": "98447", "COUNTY": "053", "ZIP_TYPE": "Unique", "PREFERRED_CITY": "TACOMA", "FEATURE_SOURCE": "Placed Point", "COUNTY_NAME": "Pierce County" }, "geometry": { "type": "Point", "coordinates": [ -122.442257581425963, 47.146676718987223 ] } },
{ "type": "Feature", "properties": { "OBJECTID": 21, "ZIP": 98013, "ZIPCODE": "98013", "COUNTY": "053", "ZIP_TYPE": "PO Box", "PREFERRED_CITY": "BURTON", "FEATURE_SOURCE": "Placed Point", "COUNTY_NAME": "Pierce County" }, "geometry": { "type": "Point", "coordinates": [ -122.465592247557751, 47.390200293585835 ] } },
{ "type": "Feature", "properties": { "OBJECTID": 22, "ZIP": 98046, "ZIPCODE": "98046", "COUNTY": "061", "ZIP_TYPE": "PO Box", "PREFERRED_CITY": "LYNNWOOD", "FEATURE_SOURCE": "Placed Point", "COUNTY_NAME": "Snohomish County" }, "geometry": { "type": "Point", "coordinates": [ -122.325328492723841, 47.81102310886655 ] } },
{ "type": "Feature", "properties": { "OBJECTID": 23, "ZIP": 98054, "ZIPCODE": "98054", "COUNTY": "033", "ZIP_TYPE": "Former", "PREFERRED_CITY": "REDONDO", "FEATURE_SOURCE": "Placed Point", "COUNTY_NAME": "King County" }, "geometry": { "type": "Point", "coordinates": [ -122.322341058937226, 47.348920446541285 ] } },
{ "type": "Feature", "properties": { "OBJECTID": 24, "ZIP": 98061, "ZIPCODE": "98061", "COUNTY": "035", "ZIP_TYPE": "PO Box", "PREFERRED_CITY": "ROLLINGBAY", "FEATURE_SOURCE": "Placed Point", "COUNTY_NAME": "Kitsap County" }, "geometry": { "type": "Point", "coordinates": [ -122.510710011154274, 47.664450343506608 ] } },
{ "type": "Feature", "properties": { "OBJECTID": 25, "ZIP": 98073, "ZIPCODE": "98073", "COUNTY": "033", "ZIP_TYPE": "PO Box", "PREFERRED_CITY": "REDMOND", "FEATURE_SOURCE": "Placed Point", "COUNTY_NAME": "King County" }, "geometry": { "type": "Point", "coordinates": [ -122.094660730774137, 47.669800572467729 ] } },
{ "type": "Feature", "properties": { "OBJECTID": 26, "ZIP": 98082, "ZIPCODE": "98082", "COUNTY": "061", "ZIP_TYPE": "PO Box", "PREFERRED_CITY": "BOTHELL", "FEATURE_SOURCE": "Placed Point", "COUNTY_NAME": "Snohomish County" }, "geometry": { "type": "Point", "coordinates": [ -122.219347775181845, 47.853890574866433 ] } },
{ "type": "Feature", "properties": { "OBJECTID": 27, "ZIP": 98089, "ZIPCODE": "98089", "COUNTY": "033", "ZIP_TYPE": "PO Box", "PREFERRED_CITY": "KENT", "FEATURE_SOURCE": "Placed Point", "COUNTY_NAME": "King County" }, "geometry": { "type": "Point", "coordinates": [ -122.29439465159227, 47.391504360142989 ] } },
{ "type": "Feature", "properties": { "OBJECTID": 28, "ZIP": 98111, "ZIPCODE": "98111", "COUNTY": "033", "ZIP_TYPE": "PO Box", "PREFERRED_CITY": "SEATTLE", "FEATURE_SOURCE": "Placed Point", "COUNTY_NAME": "King County" }, "geometry": { "type": "Point", "coordinates": [ -122.336415740994454, 47.608716496662183 ] } },
{ "type": "Feature", "properties": { "OBJECTID": 29, "ZIP": 98113, "ZIPCODE": "98113", "COUNTY": "033", "ZIP_TYPE": "PO Box", "PREFERRED_CITY": "SEATTLE", "FEATURE_SOURCE": "Placed Point", "COUNTY_NAME": "King County" }, "geometry": { "type": "Point", "coordinates": [ -122.354884658080962, 47.689368564469689 ] } },
{ "type": "Feature", "properties": { "OBJECTID": 30, "ZIP": 98114, "ZIPCODE": "98114", "COUNTY": "033", "ZIP_TYPE": "PO Box", "PREFERRED_CITY": "SEATTLE", "FEATURE_SOURCE": "Placed Point", "COUNTY_NAME": "King County" }, "geometry": { "type": "Point", "coordinates": [ -122.326089706896326, 47.598626646844821 ] } },
{ "type": "Feature", "properties": { "OBJECTID": 31, "ZIP": 98127, "ZIPCODE": "98127", "COUNTY": "033", "ZIP_TYPE": "PO Box", "PREFERRED_CITY": "SEATTLE", "FEATURE_SOURCE": "Placed Point", "COUNTY_NAME": "King County" }, "geometry": { "type": "Point", "coordinates": [ -122.378395055870271, 47.670392008741103 ] } },
{ "type": "Feature", "properties": { "OBJECTID": 32, "ZIP": 98129, "ZIPCODE": "98129", "COUNTY": "033", "ZIP_TYPE": "Unique", "PREFERRED_CITY": "SEATTLE", "FEATURE_SOURCE": "Placed Point", "COUNTY_NAME": "King County" }, "geometry": { "type": "Point", "coordinates": [ -122.33691038376287, 47.616839189702077 ] } },
{ "type": "Feature", "properties": { "OBJECTID": 33, "ZIP": 98139, "ZIPCODE": "98139", "COUNTY": "033", "ZIP_TYPE": "PO Box", "PREFERRED_CITY": "SEATTLE", "FEATURE_SOURCE": "Placed Point", "COUNTY_NAME": "King County" }, "geometry": { "type": "Point", "coordinates": [ -122.398949836458158, 47.639400459342518 ] } },
{ "type": "Feature", "properties": { "OBJECTID": 34, "ZIP": 98174, "ZIPCODE": "98174", "COUNTY": "033", "ZIP_TYPE": "Standard", "PREFERRED_CITY": "SEATTLE", "FEATURE_SOURCE": "Placed Point", "COUNTY_NAME": "King County" }, "geometry": { "type": "Point", "coordinates": [ -122.335327813878209, 47.60458180859883 ] } },
{ "type": "Feature", "properties": { "OBJECTID": 35, "ZIP": 98194, "ZIPCODE": "98194", "COUNTY": "033", "ZIP_TYPE": "PO Box", "PREFERRED_CITY": "SEATTLE", "FEATURE_SOURCE": "Placed Point", "COUNTY_NAME": "King County" }, "geometry": { "type": "Point", "coordinates": [ -122.335149223727399, 47.599077576914986 ] } },
{ "type": "Feature", "properties": { "OBJECTID": 36, "ZIP": 98161, "ZIPCODE": "98161", "COUNTY": "033", "ZIP_TYPE": "Standard", "PREFERRED_CITY": "SEATTLE", "FEATURE_SOURCE": "Placed Point", "COUNTY_NAME": "King County" }, "geometry": { "type": "Point", "coordinates": [ -122.334694199880573, 47.607560102616176 ] } },
{ "type": "Feature", "properties": { "OBJECTID": 37, "ZIP": 98165, "ZIPCODE": "98165", "COUNTY": "033", "ZIP_TYPE": "PO Box", "PREFERRED_CITY": "SEATTLE", "FEATURE_SOURCE": "Placed Point", "COUNTY_NAME": "King County" }, "geometry": { "type": "Point", "coordinates": [ -122.295327049299857, 47.720938617211701 ] } },
{ "type": "Feature", "properties": { "OBJECTID": 38, "ZIP": 98170, "ZIPCODE": "98170", "COUNTY": "033", "ZIP_TYPE": "Unique", "PREFERRED_CITY": "SEATTLE", "FEATURE_SOURCE": "Placed Point", "COUNTY_NAME": "King County" }, "geometry": { "type": "Point", "coordinates": [ -122.336764813614437, 47.622280710767349 ] } },
{ "type": "Feature", "properties": { "OBJECTID": 39, "ZIP": 98189, "ZIPCODE": "98189", "COUNTY": "033", "ZIP_TYPE": "Unique", "PREFERRED_CITY": "SEATTLE", "FEATURE_SOURCE": "Placed Point", "COUNTY_NAME": "King County" }, "geometry": { "type": "Point", "coordinates": [ -122.250715824282096, 47.429961788894694 ] } },
{ "type": "Feature", "properties": { "OBJECTID": 40, "ZIP": 98256, "ZIPCODE": "98256", "COUNTY": "061", "ZIP_TYPE": "PO Box", "PREFERRED_CITY": "INDEX", "FEATURE_SOURCE": "Placed Point", "COUNTY_NAME": "Snohomish County" }, "geometry": { "type": "Point", "coordinates": [ -121.554096249801276, 47.820385421268838 ] } },
{ "type": "Feature", "properties": { "OBJECTID": 41, "ZIP": 98293, "ZIPCODE": "98293", "COUNTY": "061", "ZIP_TYPE": "PO Box", "PREFERRED_CITY": "STARTUP", "FEATURE_SOURCE": "Placed Point", "COUNTY_NAME": "Snohomish County" }, "geometry": { "type": "Point", "coordinates": [ -121.742305459765149, 47.867293774891337 ] } },
{ "type": "Feature", "properties": { "OBJECTID": 42, "ZIP": 98353, "ZIPCODE": "98353", "COUNTY": "035", "ZIP_TYPE": "PO Box", "PREFERRED_CITY": "MANCHESTER", "FEATURE_SOURCE": "Placed Point", "COUNTY_NAME": "Kitsap County" }, "geometry": { "type": "Point", "coordinates": [ -122.544615678463629, 47.554745123403144 ] } },
{ "type": "Feature", "properties": { "OBJECTID": 43, "ZIP": 98384, "ZIPCODE": "98384", "COUNTY": "035", "ZIP_TYPE": "PO Box", "PREFERRED_CITY": "SOUTH COLBY", "FEATURE_SOURCE": "Placed Point", "COUNTY_NAME": "Kitsap County" }, "geometry": { "type": "Point", "coordinates": [ -122.523516120845173, 47.522155732873721 ] } },
{ "type": "Feature", "properties": { "OBJECTID": 44, "ZIP": 98378, "ZIPCODE": "98378", "COUNTY": "035", "ZIP_TYPE": "PO Box", "PREFERRED_CITY": "RETSIL", "FEATURE_SOURCE": "Placed Point", "COUNTY_NAME": "Kitsap County" }, "geometry": { "type": "Point", "coordinates": [ -122.615278397189783, 47.545552824889761 ] } },
{ "type": "Feature", "properties": { "OBJECTID": 45, "ZIP": 98393, "ZIPCODE": "98393", "COUNTY": "035", "ZIP_TYPE": "PO Box", "PREFERRED_CITY": "TRACYTON", "FEATURE_SOURCE": "Placed Point", "COUNTY_NAME": "Kitsap County" }, "geometry": { "type": "Point", "coordinates": [ -122.655761088031397, 47.61090667972956 ] } },
{ "type": "Feature", "properties": { "OBJECTID": 46, "ZIP": 98386, "ZIPCODE": "98386", "COUNTY": "035", "ZIP_TYPE": "PO Box", "PREFERRED_CITY": "SOUTHWORTH", "FEATURE_SOURCE": "Placed Point", "COUNTY_NAME": "Kitsap County" }, "geometry": { "type": "Point", "coordinates": [ -122.500949345354059, 47.512336859543716 ] } },
{ "type": "Feature", "properties": { "OBJECTID": 47, "ZIP": 98364, "ZIPCODE": "98364", "COUNTY": "035", "ZIP_TYPE": "PO Box", "PREFERRED_CITY": "PORT GAMBLE", "FEATURE_SOURCE": "Placed Point", "COUNTY_NAME": "Kitsap County" }, "geometry": { "type": "Point", "coordinates": [ -122.584242313809568, 47.855761890279616 ] } },
{ "type": "Feature", "properties": { "OBJECTID": 48, "ZIP": 98291, "ZIPCODE": "98291", "COUNTY": "061", "ZIP_TYPE": "PO Box", "PREFERRED_CITY": "SNOHOMISH", "FEATURE_SOURCE": "Placed Point", "COUNTY_NAME": "Snohomish County" }, "geometry": { "type": "Point", "coordinates": [ -122.09674121766561, 47.927296290070956 ] } },
{ "type": "Feature", "properties": { "OBJECTID": 49, "ZIP": 98206, "ZIPCODE": "98206", "COUNTY": "061", "ZIP_TYPE": "PO Box", "PREFERRED_CITY": "EVERETT", "FEATURE_SOURCE": "Placed Point", "COUNTY_NAME": "Snohomish County" }, "geometry": { "type": "Point", "coordinates": [ -122.210533091656075, 47.976135158857666 ] } },
{ "type": "Feature", "properties": { "OBJECTID": 50, "ZIP": 98259, "ZIPCODE": "98259", "COUNTY": "061", "ZIP_TYPE": "PO Box", "PREFERRED_CITY": "NORTH LAKEWOOD", "FEATURE_SOURCE": "Placed Point", "COUNTY_NAME": "Snohomish County" }, "geometry": { "type": "Point", "coordinates": [ -122.208369434260561, 48.151739903672159 ] } },
{ "type": "Feature", "properties": { "OBJECTID": 51, "ZIP": 98213, "ZIPCODE": "98213", "COUNTY": "061", "ZIP_TYPE": "PO Box", "PREFERRED_CITY": "EVERETT", "FEATURE_SOURCE": "Placed Point", "COUNTY_NAME": "Snohomish County" }, "geometry": { "type": "Point", "coordinates": [ -122.21053708254378, 47.975986497050684 ] } },
{ "type": "Feature", "properties": { "OBJECTID": 52, "ZIP": 98207, "ZIPCODE": "98207", "COUNTY": "061", "ZIP_TYPE": "Unique", "PREFERRED_CITY": "EVERETT", "FEATURE_SOURCE": "Placed Point", "COUNTY_NAME": "Snohomish County" }, "geometry": { "type": "Point", "coordinates": [ -122.21678375019151, 47.991162407443902 ] } },
{ "type": "Feature", "properties": { "OBJECTID": 53, "ZIP": 98287, "ZIPCODE": "98287", "COUNTY": "061", "ZIP_TYPE": "PO Box", "PREFERRED_CITY": "SILVANA", "FEATURE_SOURCE": "Placed Point", "COUNTY_NAME": "Snohomish County" }, "geometry": { "type": "Point", "coordinates": [ -122.252234970059618, 48.200753311222158 ] } },
{ "type": "Feature", "properties": { "OBJECTID": 54, "ZIP": 98048, "ZIPCODE": "98048", "COUNTY": "033", "ZIP_TYPE": "Former", "PREFERRED_CITY": "PALMER", "FEATURE_SOURCE": "Placed Point", "COUNTY_NAME": "King County" }, "geometry": { "type": "Point", "coordinates": [ -121.892367564861416, 47.31440804639913 ] } },
{ "type": "Feature", "properties": { "OBJECTID": 55, "ZIP": 98434, "ZIPCODE": "98434", "COUNTY": "053", "ZIP_TYPE": "Former", "PREFERRED_CITY": "NORTH FORT LEWIS", "FEATURE_SOURCE": "Placed Point", "COUNTY_NAME": "Pierce County" }, "geometry": { "type": "Point", "coordinates": [ -122.595865652843386, 47.120651057710077 ] } },
{ "type": "Feature", "properties": { "OBJECTID": 56, "ZIP": 98493, "ZIPCODE": "98493", "COUNTY": "053", "ZIP_TYPE": "Unique", "PREFERRED_CITY": "TACOMA", "FEATURE_SOURCE": "Placed Point", "COUNTY_NAME": "Pierce County" }, "geometry": { "type": "Point", "coordinates": [ -122.575609169326825, 47.135222979243764 ] } },
{ "type": "Feature", "properties": { "OBJECTID": 57, "ZIP": 98001, "ZIPCODE": "98001", "COUNTY": "033", "ZIP_TYPE": "Standard", "PREFERRED_CITY": "AUBURN", "FEATURE_SOURCE": "Polygon Centroid", "COUNTY_NAME": "King County" }, "geometry": { "type": "Point", "coordinates": [ -122.265130167658143, 47.309490422028226 ] } },
{ "type": "Feature", "properties": { "OBJECTID": 58, "ZIP": 98002, "ZIPCODE": "98002", "COUNTY": "033", "ZIP_TYPE": "Standard", "PREFERRED_CITY": "AUBURN", "FEATURE_SOURCE": "Polygon Centroid", "COUNTY_NAME": "King County" }, "geometry": { "type": "Point", "coordinates": [ -122.215757953452737, 47.30829589006148 ] } },
{ "type": "Feature", "properties": { "OBJECTID": 59, "ZIP": 98003, "ZIPCODE": "98003", "COUNTY": "033", "ZIP_TYPE": "Standard", "PREFERRED_CITY": "FEDERAL WAY", "FEATURE_SOURCE": "Polygon Centroid", "COUNTY_NAME": "King County" }, "geometry": { "type": "Point", "coordinates": [ -122.314585345420738, 47.306690469053549 ] } },
{ "type": "Feature", "properties": { "OBJECTID": 60, "ZIP": 98004, "ZIPCODE": "98004", "COUNTY": "033", "ZIP_TYPE": "Standard", "PREFERRED_CITY": "BELLEVUE", "FEATURE_SOURCE": "Polygon Centroid", "COUNTY_NAME": "King County" }, "geometry": { "type": "Point", "coordinates": [ -122.203192122711357, 47.619121371609161 ] } },
{ "type": "Feature", "properties": { "OBJECTID": 61, "ZIP": 98005, "ZIPCODE": "98005", "COUNTY": "033", "ZIP_TYPE": "Standard", "PREFERRED_CITY": "BELLEVUE", "FEATURE_SOURCE": "Polygon Centroid", "COUNTY_NAME": "King County" }, "geometry": { "type": "Point", "coordinates": [ -122.167513769639754, 47.616781709129505 ] } },
{ "type": "Feature", "properties": { "OBJECTID": 62, "ZIP": 98006, "ZIPCODE": "98006", "COUNTY": "033", "ZIP_TYPE": "Standard", "PREFERRED_CITY": "BELLEVUE", "FEATURE_SOURCE": "Polygon Centroid", "COUNTY_NAME": "King County" }, "geometry": { "type": "Point", "coordinates": [ -122.147775439827015, 47.560613423654544 ] } },
{ "type": "Feature", "properties": { "OBJECTID": 63, "ZIP": 98007, "ZIPCODE": "98007", "COUNTY": "033", "ZIP_TYPE": "Standard", "PREFERRED_CITY": "BELLEVUE", "FEATURE_SOURCE": "Polygon Centroid", "COUNTY_NAME": "King County" }, "geometry": { "type": "Point", "coordinates": [ -122.143784113956841, 47.617308976891991 ] } },
{ "type": "Feature", "properties": { "OBJECTID": 64, "ZIP": 98008, "ZIPCODE": "98008", "COUNTY": "033", "ZIP_TYPE": "Standard", "PREFERRED_CITY": "BELLEVUE", "FEATURE_SOURCE": "Polygon Centroid", "COUNTY_NAME": "King County" }, "geometry": { "type": "Point", "coordinates": [ -122.117285690685904, 47.607512233041057 ] } },
{ "type": "Feature", "properties": { "OBJECTID": 65, "ZIP": 98010, "ZIPCODE": "98010", "COUNTY": "033", "ZIP_TYPE": "Standard", "PREFERRED_CITY": "BLACK DIAMOND", "FEATURE_SOURCE": "Polygon Centroid", "COUNTY_NAME": "King County" }, "geometry": { "type": "Point", "coordinates": [ -121.997788751905333, 47.315925940690335 ] } },
{ "type": "Feature", "properties": { "OBJECTID": 66, "ZIP": 98011, "ZIPCODE": "98011", "COUNTY": "033", "ZIP_TYPE": "Standard", "PREFERRED_CITY": "BOTHELL", "FEATURE_SOURCE": "Polygon Centroid", "COUNTY_NAME": "King County" }, "geometry": { "type": "Point", "coordinates": [ -122.198617726022547, 47.757248500256161 ] } },
{ "type": "Feature", "properties": { "OBJECTID": 67, "ZIP": 98011, "ZIPCODE": "98011", "COUNTY": "061", "ZIP_TYPE": "Standard", "PREFERRED_CITY": "BOTHELL", "FEATURE_SOURCE": "Polygon Centroid", "COUNTY_NAME": "Snohomish County" }, "geometry": { "type": "Point", "coordinates": [ -122.222021782057027, 47.776917503564029 ] } },
{ "type": "Feature", "properties": { "OBJECTID": 68, "ZIP": 98012, "ZIPCODE": "98012", "COUNTY": "061", "ZIP_TYPE": "Standard", "PREFERRED_CITY": "BOTHELL", "FEATURE_SOURCE": "Polygon Centroid", "COUNTY_NAME": "Snohomish County" }, "geometry": { "type": "Point", "coordinates": [ -122.199636428067052, 47.840299435458185 ] } },
{ "type": "Feature", "properties": { "OBJECTID": 69, "ZIP": 98014, "ZIPCODE": "98014", "COUNTY": "033", "ZIP_TYPE": "Standard", "PREFERRED_CITY": "CARNATION", "FEATURE_SOURCE": "Polygon Centroid", "COUNTY_NAME": "King County" }, "geometry": { "type": "Point", "coordinates": [ -121.882593909489529, 47.658230530203909 ] } },
{ "type": "Feature", "properties": { "OBJECTID": 70, "ZIP": 98019, "ZIPCODE": "98019", "COUNTY": "033", "ZIP_TYPE": "Standard", "PREFERRED_CITY": "DUVALL", "FEATURE_SOURCE": "Polygon Centroid", "COUNTY_NAME": "King County" }, "geometry": { "type": "Point", "coordinates": [ -121.787737844619329, 47.734728856830571 ] } },
{ "type": "Feature", "properties": { "OBJECTID": 71, "ZIP": 98019, "ZIPCODE": "98019", "COUNTY": "061", "ZIP_TYPE": "Standard", "PREFERRED_CITY": "DUVALL", "FEATURE_SOURCE": "Polygon Centroid", "COUNTY_NAME": "Snohomish County" }, "geometry": { "type": "Point", "coordinates": [ -121.935281880643984, 47.778650511936299 ] } },
{ "type": "Feature", "properties": { "OBJECTID": 72, "ZIP": 98020, "ZIPCODE": "98020", "COUNTY": "061", "ZIP_TYPE": "Standard", "PREFERRED_CITY": "EDMONDS", "FEATURE_SOURCE": "Polygon Centroid", "COUNTY_NAME": "Snohomish County" }, "geometry": { "type": "Point", "coordinates": [ -122.372321553775393, 47.800450580393388 ] } },
{ "type": "Feature", "properties": { "OBJECTID": 73, "ZIP": 98021, "ZIPCODE": "98021", "COUNTY": "033", "ZIP_TYPE": "Standard", "PREFERRED_CITY": "BOTHELL", "FEATURE_SOURCE": "Polygon Centroid", "COUNTY_NAME": "King County" }, "geometry": { "type": "Point", "coordinates": [ -122.20910230568883, 47.792206671156173 ] } },
{ "type": "Feature", "properties": { "OBJECTID": 74, "ZIP": 98022, "ZIPCODE": "98022", "COUNTY": "033", "ZIP_TYPE": "Standard", "PREFERRED_CITY": "ENUMCLAW", "FEATURE_SOURCE": "Polygon Centroid", "COUNTY_NAME": "King County" }, "geometry": { "type": "Point", "coordinates": [ -121.70838126034954, 47.24621570859167 ] } },
{ "type": "Feature", "properties": { "OBJECTID": 75, "ZIP": 98022, "ZIPCODE": "98022", "COUNTY": "053", "ZIP_TYPE": "Standard", "PREFERRED_CITY": "ENUMCLAW", "FEATURE_SOURCE": "Polygon Centroid", "COUNTY_NAME": "Pierce County" }, "geometry": { "type": "Point", "coordinates": [ -121.493158432570695, 47.035568326504816 ] } },
{ "type": "Feature", "properties": { "OBJECTID": 76, "ZIP": 98023, "ZIPCODE": "98023", "COUNTY": "033", "ZIP_TYPE": "Standard", "PREFERRED_CITY": "FEDERAL WAY", "FEATURE_SOURCE": "Polygon Centroid", "COUNTY_NAME": "King County" }, "geometry": { "type": "Point", "coordinates": [ -122.362248725812407, 47.308669669981867 ] } },
{ "type": "Feature", "properties": { "OBJECTID": 77, "ZIP": 98024, "ZIPCODE": "98024", "COUNTY": "033", "ZIP_TYPE": "Standard", "PREFERRED_CITY": "FALL CITY", "FEATURE_SOURCE": "Polygon Centroid", "COUNTY_NAME": "King County" }, "geometry": { "type": "Point", "coordinates": [ -121.779480504072055, 47.658297007554268 ] } },
{ "type": "Feature", "properties": { "OBJECTID": 78, "ZIP": 98026, "ZIPCODE": "98026", "COUNTY": "061", "ZIP_TYPE": "Standard", "PREFERRED_CITY": "EDMONDS", "FEATURE_SOURCE": "Polygon Centroid", "COUNTY_NAME": "Snohomish County" }, "geometry": { "type": "Point", "coordinates": [ -122.308007637631064, 47.864483365289885 ] } },
{ "type": "Feature", "properties": { "OBJECTID": 79, "ZIP": 98027, "ZIPCODE": "98027", "COUNTY": "033", "ZIP_TYPE": "Standard", "PREFERRED_CITY": "ISSAQUAH", "FEATURE_SOURCE": "Polygon Centroid", "COUNTY_NAME": "King County" }, "geometry": { "type": "Point", "coordinates": [ -121.998115634955596, 47.501976561502268 ] } },
{ "type": "Feature", "properties": { "OBJECTID": 80, "ZIP": 98028, "ZIPCODE": "98028", "COUNTY": "033", "ZIP_TYPE": "Standard", "PREFERRED_CITY": "KENMORE", "FEATURE_SOURCE": "Polygon Centroid", "COUNTY_NAME": "King County" }, "geometry": { "type": "Point", "coordinates": [ -122.245810404548436, 47.753043564863191 ] } },
{ "type": "Feature", "properties": { "OBJECTID": 81, "ZIP": 98029, "ZIPCODE": "98029", "COUNTY": "033", "ZIP_TYPE": "Standard", "PREFERRED_CITY": "ISSAQUAH", "FEATURE_SOURCE": "Polygon Centroid", "COUNTY_NAME": "King County" }, "geometry": { "type": "Point", "coordinates": [ -122.007499992850683, 47.558255513981749 ] } },
{ "type": "Feature", "properties": { "OBJECTID": 82, "ZIP": 98030, "ZIPCODE": "98030", "COUNTY": "033", "ZIP_TYPE": "Standard", "PREFERRED_CITY": "KENT", "FEATURE_SOURCE": "Polygon Centroid", "COUNTY_NAME": "King County" }, "geometry": { "type": "Point", "coordinates": [ -122.196998479572116, 47.368340585816242 ] } },
{ "type": "Feature", "properties": { "OBJECTID": 83, "ZIP": 98031, "ZIPCODE": "98031", "COUNTY": "033", "ZIP_TYPE": "Standard", "PREFERRED_CITY": "KENT", "FEATURE_SOURCE": "Polygon Centroid", "COUNTY_NAME": "King County" }, "geometry": { "type": "Point", "coordinates": [ -122.196116470645578, 47.406942300070178 ] } },
{ "type": "Feature", "properties": { "OBJECTID": 84, "ZIP": 98032, "ZIPCODE": "98032", "COUNTY": "033", "ZIP_TYPE": "Standard", "PREFERRED_CITY": "KENT", "FEATURE_SOURCE": "Polygon Centroid", "COUNTY_NAME": "King County" }, "geometry": { "type": "Point", "coordinates": [ -122.259240200353844, 47.391956387363713 ] } },
{ "type": "Feature", "properties": { "OBJECTID": 85, "ZIP": 98033, "ZIPCODE": "98033", "COUNTY": "033", "ZIP_TYPE": "Standard", "PREFERRED_CITY": "KIRKLAND", "FEATURE_SOURCE": "Polygon Centroid", "COUNTY_NAME": "King County" }, "geometry": { "type": "Point", "coordinates": [ -122.186680613815383, 47.675844575330842 ] } },
{ "type": "Feature", "properties": { "OBJECTID": 86, "ZIP": 98034, "ZIPCODE": "98034", "COUNTY": "033", "ZIP_TYPE": "Standard", "PREFERRED_CITY": "KIRKLAND", "FEATURE_SOURCE": "Polygon Centroid", "COUNTY_NAME": "King County" }, "geometry": { "type": "Point", "coordinates": [ -122.205253530373739, 47.718362833525596 ] } },
{ "type": "Feature", "properties": { "OBJECTID": 87, "ZIP": 98036, "ZIPCODE": "98036", "COUNTY": "061", "ZIP_TYPE": "Standard", "PREFERRED_CITY": "LYNNWOOD", "FEATURE_SOURCE": "Polygon Centroid", "COUNTY_NAME": "Snohomish County" }, "geometry": { "type": "Point", "coordinates": [ -122.311376802690802, 47.817806905557816 ] } },
{ "type": "Feature", "properties": { "OBJECTID": 88, "ZIP": 98037, "ZIPCODE": "98037", "COUNTY": "061", "ZIP_TYPE": "Standard", "PREFERRED_CITY": "LYNNWOOD", "FEATURE_SOURCE": "Polygon Centroid", "COUNTY_NAME": "Snohomish County" }, "geometry": { "type": "Point", "coordinates": [ -122.285312866643224, 47.839199681547164 ] } },
{ "type": "Feature", "properties": { "OBJECTID": 89, "ZIP": 98038, "ZIPCODE": "98038", "COUNTY": "033", "ZIP_TYPE": "Standard", "PREFERRED_CITY": "MAPLE VALLEY", "FEATURE_SOURCE": "Polygon Centroid", "COUNTY_NAME": "King County" }, "geometry": { "type": "Point", "coordinates": [ -121.888472726714113, 47.423325158006257 ] } },
{ "type": "Feature", "properties": { "OBJECTID": 90, "ZIP": 98039, "ZIPCODE": "98039", "COUNTY": "033", "ZIP_TYPE": "Standard", "PREFERRED_CITY": "MEDINA", "FEATURE_SOURCE": "Polygon Centroid", "COUNTY_NAME": "King County" }, "geometry": { "type": "Point", "coordinates": [ -122.233723633772996, 47.625552661764679 ] } },
{ "type": "Feature", "properties": { "OBJECTID": 91, "ZIP": 98040, "ZIPCODE": "98040", "COUNTY": "033", "ZIP_TYPE": "Standard", "PREFERRED_CITY": "MERCER ISLAND", "FEATURE_SOURCE": "Polygon Centroid", "COUNTY_NAME": "King County" }, "geometry": { "type": "Point", "coordinates": [ -122.226559992475131, 47.562588368507562 ] } },
{ "type": "Feature", "properties": { "OBJECTID": 92, "ZIP": 98042, "ZIPCODE": "98042", "COUNTY": "033", "ZIP_TYPE": "Standard", "PREFERRED_CITY": "KENT", "FEATURE_SOURCE": "Polygon Centroid", "COUNTY_NAME": "King County" }, "geometry": { "type": "Point", "coordinates": [ -122.115065028876543, 47.362732318981799 ] } },
{ "type": "Feature", "properties": { "OBJECTID": 93, "ZIP": 98043, "ZIPCODE": "98043", "COUNTY": "061", "ZIP_TYPE": "Standard", "PREFERRED_CITY": "MOUNTLAKE TERRACE", "FEATURE_SOURCE": "Polygon Centroid", "COUNTY_NAME": "Snohomish County" }, "geometry": { "type": "Point", "coordinates": [ -122.307458524948743, 47.79196228751411 ] } },
{ "type": "Feature", "properties": { "OBJECTID": 94, "ZIP": 98045, "ZIPCODE": "98045", "COUNTY": "033", "ZIP_TYPE": "Standard", "PREFERRED_CITY": "NORTH BEND", "FEATURE_SOURCE": "Polygon Centroid", "COUNTY_NAME": "King County" }, "geometry": { "type": "Point", "coordinates": [ -121.593266812138708, 47.437046760280474 ] } },
{ "type": "Feature", "properties": { "OBJECTID": 95, "ZIP": 98047, "ZIPCODE": "98047", "COUNTY": "033", "ZIP_TYPE": "Standard", "PREFERRED_CITY": "PACIFIC", "FEATURE_SOURCE": "Polygon Centroid", "COUNTY_NAME": "King County" }, "geometry": { "type": "Point", "coordinates": [ -122.23941122485418, 47.263883245476556 ] } },
{ "type": "Feature", "properties": { "OBJECTID": 96, "ZIP": 98047, "ZIPCODE": "98047", "COUNTY": "053", "ZIP_TYPE": "Standard", "PREFERRED_CITY": "PACIFIC", "FEATURE_SOURCE": "Polygon Centroid", "COUNTY_NAME": "Pierce County" }, "geometry": { "type": "Point", "coordinates": [ -122.251446744758354, 47.251193639012691 ] } },
{ "type": "Feature", "properties": { "OBJECTID": 97, "ZIP": 98050, "ZIPCODE": "98050", "COUNTY": "033", "ZIP_TYPE": "PO Box", "PREFERRED_CITY": "PRESTON", "FEATURE_SOURCE": "Polygon Centroid", "COUNTY_NAME": "King County" }, "geometry": { "type": "Point", "coordinates": [ -121.935827502135467, 47.550234917774354 ] } },
{ "type": "Feature", "properties": { "OBJECTID": 98, "ZIP": 98051, "ZIPCODE": "98051", "COUNTY": "033", "ZIP_TYPE": "Standard", "PREFERRED_CITY": "RAVENSDALE", "FEATURE_SOURCE": "Polygon Centroid", "COUNTY_NAME": "King County" }, "geometry": { "type": "Point", "coordinates": [ -121.908352113801442, 47.339150167359477 ] } },
{ "type": "Feature", "properties": { "OBJECTID": 99, "ZIP": 98052, "ZIPCODE": "98052", "COUNTY": "033", "ZIP_TYPE": "Standard", "PREFERRED_CITY": "REDMOND", "FEATURE_SOURCE": "Polygon Centroid", "COUNTY_NAME": "King County" }, "geometry": { "type": "Point", "coordinates": [ -122.12212346870632, 47.682909307484366 ] } },
{ "type": "Feature", "properties": { "OBJECTID": 100, "ZIP": 98053, "ZIPCODE": "98053", "COUNTY": "033", "ZIP_TYPE": "Standard", "PREFERRED_CITY": "REDMOND", "FEATURE_SOURCE": "Polygon Centroid", "COUNTY_NAME": "King County" }, "geometry": { "type": "Point", "coordinates": [ -122.021153930552785, 47.667335286130331 ] } },
{ "type": "Feature", "properties": { "OBJECTID": 101, "ZIP": 98055, "ZIPCODE": "98055", "COUNTY": "033", "ZIP_TYPE": "Standard", "PREFERRED_CITY": "RENTON", "FEATURE_SOURCE": "Polygon Centroid", "COUNTY_NAME": "King County" }, "geometry": { "type": "Point", "coordinates": [ -122.202293734084805, 47.447914413474521 ] } },
{ "type": "Feature", "properties": { "OBJECTID": 102, "ZIP": 98056, "ZIPCODE": "98056", "COUNTY": "033", "ZIP_TYPE": "Standard", "PREFERRED_CITY": "RENTON", "FEATURE_SOURCE": "Polygon Centroid", "COUNTY_NAME": "King County" }, "geometry": { "type": "Point", "coordinates": [ -122.183737736658728, 47.512331758232023 ] } },
{ "type": "Feature", "properties": { "OBJECTID": 103, "ZIP": 98057, "ZIPCODE": "98057", "COUNTY": "033", "ZIP_TYPE": "Standard", "PREFERRED_CITY": "RENTON", "FEATURE_SOURCE": "Polygon Centroid", "COUNTY_NAME": "King County" }, "geometry": { "type": "Point", "coordinates": [ -122.219981292353864, 47.472793795714978 ] } },
{ "type": "Feature", "properties": { "OBJECTID": 104, "ZIP": 98058, "ZIPCODE": "98058", "COUNTY": "033", "ZIP_TYPE": "Standard", "PREFERRED_CITY": "RENTON", "FEATURE_SOURCE": "Polygon Centroid", "COUNTY_NAME": "King County" }, "geometry": { "type": "Point", "coordinates": [ -122.124083684860693, 47.439705658141214 ] } },
{ "type": "Feature", "properties": { "OBJECTID": 105, "ZIP": 98059, "ZIPCODE": "98059", "COUNTY": "033", "ZIP_TYPE": "Standard", "PREFERRED_CITY": "RENTON", "FEATURE_SOURCE": "Polygon Centroid", "COUNTY_NAME": "King County" }, "geometry": { "type": "Point", "coordinates": [ -122.125501559567681, 47.498948694914098 ] } },
{ "type": "Feature", "properties": { "OBJECTID": 106, "ZIP": 98065, "ZIPCODE": "98065", "COUNTY": "033", "ZIP_TYPE": "Standard", "PREFERRED_CITY": "SNOQUALMIE", "FEATURE_SOURCE": "Polygon Centroid", "COUNTY_NAME": "King County" }, "geometry": { "type": "Point", "coordinates": [ -121.766589419206952, 47.549652883485159 ] } },
{ "type": "Feature", "properties": { "OBJECTID": 107, "ZIP": 98068, "ZIPCODE": "98068", "COUNTY": "033", "ZIP_TYPE": "PO Box", "PREFERRED_CITY": "SNOQUALMIE PASS", "FEATURE_SOURCE": "Polygon Centroid", "COUNTY_NAME": "King County" }, "geometry": { "type": "Point", "coordinates": [ -121.416593654308258, 47.436705066407683 ] } },
{ "type": "Feature", "properties": { "OBJECTID": 108, "ZIP": 98068, "ZIPCODE": "98068", "COUNTY": "037", "ZIP_TYPE": "PO Box", "PREFERRED_CITY": "SNOQUALMIE PASS", "FEATURE_SOURCE": "Polygon Centroid", "COUNTY_NAME": "Kittitas County" }, "geometry": { "type": "Point", "coordinates": [ -121.346216147820286, 47.406870910927992 ] } },
{ "type": "Feature", "properties": { "OBJECTID": 109, "ZIP": 98070, "ZIPCODE": "98070", "COUNTY": "033", "ZIP_TYPE": "Standard", "PREFERRED_CITY": "VASHON", "FEATURE_SOURCE": "Polygon Centroid", "COUNTY_NAME": "King County" }, "geometry": { "type": "Point", "coordinates": [ -122.491215406169388, 47.416832279424092 ] } },
{ "type": "Feature", "properties": { "OBJECTID": 110, "ZIP": 98072, "ZIPCODE": "98072", "COUNTY": "033", "ZIP_TYPE": "Standard", "PREFERRED_CITY": "WOODINVILLE", "FEATURE_SOURCE": "Polygon Centroid", "COUNTY_NAME": "King County" }, "geometry": { "type": "Point", "coordinates": [ -122.128052317025876, 47.749526376067017 ] } },
{ "type": "Feature", "properties": { "OBJECTID": 111, "ZIP": 98072, "ZIPCODE": "98072", "COUNTY": "061", "ZIP_TYPE": "Standard", "PREFERRED_CITY": "WOODINVILLE", "FEATURE_SOURCE": "Polygon Centroid", "COUNTY_NAME": "Snohomish County" }, "geometry": { "type": "Point", "coordinates": [ -122.140434937228449, 47.79331874417425 ] } },
{ "type": "Feature", "properties": { "OBJECTID": 112, "ZIP": 98074, "ZIPCODE": "98074", "COUNTY": "033", "ZIP_TYPE": "Standard", "PREFERRED_CITY": "SAMMAMISH", "FEATURE_SOURCE": "Polygon Centroid", "COUNTY_NAME": "King County" }, "geometry": { "type": "Point", "coordinates": [ -122.033620735390144, 47.621416663907695 ] } },
{ "type": "Feature", "properties": { "OBJECTID": 113, "ZIP": 98075, "ZIPCODE": "98075", "COUNTY": "033", "ZIP_TYPE": "Standard", "PREFERRED_CITY": "SAMMAMIISH", "FEATURE_SOURCE": "Polygon Centroid", "COUNTY_NAME": "King County" }, "geometry": { "type": "Point", "coordinates": [ -122.05190648460183, 47.585596793323219 ] } },
{ "type": "Feature", "properties": { "OBJECTID": 114, "ZIP": 98077, "ZIPCODE": "98077", "COUNTY": "033", "ZIP_TYPE": "Standard", "PREFERRED_CITY": "WOODINVILLE", "FEATURE_SOURCE": "Polygon Centroid", "COUNTY_NAME": "King County" }, "geometry": { "type": "Point", "coordinates": [ -122.050881724956454, 47.747028366466431 ] } },
{ "type": "Feature", "properties": { "OBJECTID": 115, "ZIP": 98077, "ZIPCODE": "98077", "COUNTY": "061", "ZIP_TYPE": "Standard", "PREFERRED_CITY": "WOODINVILLE", "FEATURE_SOURCE": "Polygon Centroid", "COUNTY_NAME": "Snohomish County" }, "geometry": { "type": "Point", "coordinates": [ -122.089514860224597, 47.784182034847525 ] } },
{ "type": "Feature", "properties": { "OBJECTID": 116, "ZIP": 98087, "ZIPCODE": "98087", "COUNTY": "061", "ZIP_TYPE": "Standard", "PREFERRED_CITY": "LYNNWOOD", "FEATURE_SOURCE": "Polygon Centroid", "COUNTY_NAME": "Snohomish County" }, "geometry": { "type": "Point", "coordinates": [ -122.265757471585545, 47.86350426225723 ] } },
{ "type": "Feature", "properties": { "OBJECTID": 117, "ZIP": 98092, "ZIPCODE": "98092", "COUNTY": "033", "ZIP_TYPE": "Standard", "PREFERRED_CITY": "AUBURN", "FEATURE_SOURCE": "Polygon Centroid", "COUNTY_NAME": "King County" }, "geometry": { "type": "Point", "coordinates": [ -122.12648908663914, 47.289328012477824 ] } },
{ "type": "Feature", "properties": { "OBJECTID": 118, "ZIP": 98092, "ZIPCODE": "98092", "COUNTY": "053", "ZIP_TYPE": "Standard", "PREFERRED_CITY": "AUBURN", "FEATURE_SOURCE": "Polygon Centroid", "COUNTY_NAME": "Pierce County" }, "geometry": { "type": "Point", "coordinates": [ -122.210999313922386, 47.249580402391892 ] } },
{ "type": "Feature", "properties": { "OBJECTID": 119, "ZIP": 98101, "ZIPCODE": "98101", "COUNTY": "033", "ZIP_TYPE": "Standard", "PREFERRED_CITY": "SEATTLE", "FEATURE_SOURCE": "Polygon Centroid", "COUNTY_NAME": "King County" }, "geometry": { "type": "Point", "coordinates": [ -122.334402510455163, 47.611467022554585 ] } },
{ "type": "Feature", "properties": { "OBJECTID": 120, "ZIP": 98102, "ZIPCODE": "98102", "COUNTY": "033", "ZIP_TYPE": "Standard", "PREFERRED_CITY": "SEATTLE", "FEATURE_SOURCE": "Polygon Centroid", "COUNTY_NAME": "King County" }, "geometry": { "type": "Point", "coordinates": [ -122.322792622853086, 47.636419539023571 ] } },
{ "type": "Feature", "properties": { "OBJECTID": 121, "ZIP": 98103, "ZIPCODE": "98103", "COUNTY": "033", "ZIP_TYPE": "Standard", "PREFERRED_CITY": "SEATTLE", "FEATURE_SOURCE": "Polygon Centroid", "COUNTY_NAME": "King County" }, "geometry": { "type": "Point", "coordinates": [ -122.342550679568362, 47.673689929416526 ] } },
{ "type": "Feature", "properties": { "OBJECTID": 122, "ZIP": 98104, "ZIPCODE": "98104", "COUNTY": "033", "ZIP_TYPE": "Standard", "PREFERRED_CITY": "SEATTLE", "FEATURE_SOURCE": "Polygon Centroid", "COUNTY_NAME": "King County" }, "geometry": { "type": "Point", "coordinates": [ -122.328505351878263, 47.602131868879724 ] } },
{ "type": "Feature", "properties": { "OBJECTID": 123, "ZIP": 98105, "ZIPCODE": "98105", "COUNTY": "033", "ZIP_TYPE": "Standard", "PREFERRED_CITY": "SEATTLE", "FEATURE_SOURCE": "Polygon Centroid", "COUNTY_NAME": "King County" }, "geometry": { "type": "Point", "coordinates": [ -122.31026782930428, 47.6676362433655 ] } },
{ "type": "Feature", "properties": { "OBJECTID": 124, "ZIP": 98106, "ZIPCODE": "98106", "COUNTY": "033", "ZIP_TYPE": "Standard", "PREFERRED_CITY": "SEATTLE", "FEATURE_SOURCE": "Polygon Centroid", "COUNTY_NAME": "King County" }, "geometry": { "type": "Point", "coordinates": [ -122.353014212734465, 47.54213604158226 ] } },
{ "type": "Feature", "properties": { "OBJECTID": 125, "ZIP": 98107, "ZIPCODE": "98107", "COUNTY": "033", "ZIP_TYPE": "Standard", "PREFERRED_CITY": "SEATTLE", "FEATURE_SOURCE": "Polygon Centroid", "COUNTY_NAME": "King County" }, "geometry": { "type": "Point", "coordinates": [ -122.37702616646834, 47.667533943572053 ] } },
{ "type": "Feature", "properties": { "OBJECTID": 126, "ZIP": 98108, "ZIPCODE": "98108", "COUNTY": "033", "ZIP_TYPE": "Standard", "PREFERRED_CITY": "SEATTLE", "FEATURE_SOURCE": "Polygon Centroid", "COUNTY_NAME": "King County" }, "geometry": { "type": "Point", "coordinates": [ -122.312473360203626, 47.540927079142222 ] } },
{ "type": "Feature", "properties": { "OBJECTID": 127, "ZIP": 98109, "ZIPCODE": "98109", "COUNTY": "033", "ZIP_TYPE": "Standard", "PREFERRED_CITY": "SEATTLE", "FEATURE_SOURCE": "Polygon Centroid", "COUNTY_NAME": "King County" }, "geometry": { "type": "Point", "coordinates": [ -122.34447873233492, 47.631685142645331 ] } },
{ "type": "Feature", "properties": { "OBJECTID": 128, "ZIP": 98110, "ZIPCODE": "98110", "COUNTY": "035", "ZIP_TYPE": "Standard", "PREFERRED_CITY": "BAINBRIDGE ISLAND", "FEATURE_SOURCE": "Polygon Centroid", "COUNTY_NAME": "Kitsap County" }, "geometry": { "type": "Point", "coordinates": [ -122.537933253576213, 47.644754037155145 ] } },
{ "type": "Feature", "properties": { "OBJECTID": 129, "ZIP": 98112, "ZIPCODE": "98112", "COUNTY": "033", "ZIP_TYPE": "Standard", "PREFERRED_CITY": "SEATTLE", "FEATURE_SOURCE": "Polygon Centroid", "COUNTY_NAME": "King County" }, "geometry": { "type": "Point", "coordinates": [ -122.297638114521718, 47.631882205518224 ] } },
{ "type": "Feature", "properties": { "OBJECTID": 130, "ZIP": 98115, "ZIPCODE": "98115", "COUNTY": "033", "ZIP_TYPE": "Standard", "PREFERRED_CITY": "SEATTLE", "FEATURE_SOURCE": "Polygon Centroid", "COUNTY_NAME": "King County" }, "geometry": { "type": "Point", "coordinates": [ -122.292662943666514, 47.685422366585328 ] } },
{ "type": "Feature", "properties": { "OBJECTID": 131, "ZIP": 98116, "ZIPCODE": "98116", "COUNTY": "033", "ZIP_TYPE": "Standard", "PREFERRED_CITY": "SEATTLE", "FEATURE_SOURCE": "Polygon Centroid", "COUNTY_NAME": "King County" }, "geometry": { "type": "Point", "coordinates": [ -122.394641227871062, 47.573911933636175 ] } },
{ "type": "Feature", "properties": { "OBJECTID": 132, "ZIP": 98117, "ZIPCODE": "98117", "COUNTY": "033", "ZIP_TYPE": "Standard", "PREFERRED_CITY": "SEATTLE", "FEATURE_SOURCE": "Polygon Centroid", "COUNTY_NAME": "King County" }, "geometry": { "type": "Point", "coordinates": [ -122.380862173895594, 47.688173482376406 ] } },
{ "type": "Feature", "properties": { "OBJECTID": 133, "ZIP": 98118, "ZIPCODE": "98118", "COUNTY": "033", "ZIP_TYPE": "Standard", "PREFERRED_CITY": "SEATTLE", "FEATURE_SOURCE": "Polygon Centroid", "COUNTY_NAME": "King County" }, "geometry": { "type": "Point", "coordinates": [ -122.274531782214069, 47.539906453645322 ] } },
{ "type": "Feature", "properties": { "OBJECTID": 134, "ZIP": 98119, "ZIPCODE": "98119", "COUNTY": "033", "ZIP_TYPE": "Standard", "PREFERRED_CITY": "SEATTLE", "FEATURE_SOURCE": "Polygon Centroid", "COUNTY_NAME": "King County" }, "geometry": { "type": "Point", "coordinates": [ -122.370392586438882, 47.639890706921413 ] } },
{ "type": "Feature", "properties": { "OBJECTID": 135, "ZIP": 98121, "ZIPCODE": "98121", "COUNTY": "033", "ZIP_TYPE": "Standard", "PREFERRED_CITY": "SEATTLE", "FEATURE_SOURCE": "Polygon Centroid", "COUNTY_NAME": "King County" }, "geometry": { "type": "Point", "coordinates": [ -122.346886003879106, 47.615231931442075 ] } },
{ "type": "Feature", "properties": { "OBJECTID": 136, "ZIP": 98122, "ZIPCODE": "98122", "COUNTY": "033", "ZIP_TYPE": "Standard", "PREFERRED_CITY": "SEATTLE", "FEATURE_SOURCE": "Polygon Centroid", "COUNTY_NAME": "King County" }, "geometry": { "type": "Point", "coordinates": [ -122.303189218603322, 47.610505200004212 ] } },
{ "type": "Feature", "properties": { "OBJECTID": 137, "ZIP": 98125, "ZIPCODE": "98125", "COUNTY": "033", "ZIP_TYPE": "Standard", "PREFERRED_CITY": "SEATTLE", "FEATURE_SOURCE": "Polygon Centroid", "COUNTY_NAME": "King County" }, "geometry": { "type": "Point", "coordinates": [ -122.303685882251813, 47.716832494241885 ] } },
{ "type": "Feature", "properties": { "OBJECTID": 138, "ZIP": 98126, "ZIPCODE": "98126", "COUNTY": "033", "ZIP_TYPE": "Standard", "PREFERRED_CITY": "SEATTLE", "FEATURE_SOURCE": "Polygon Centroid", "COUNTY_NAME": "King County" }, "geometry": { "type": "Point", "coordinates": [ -122.37383488980494, 47.549081815424344 ] } },
{ "type": "Feature", "properties": { "OBJECTID": 139, "ZIP": 98133, "ZIPCODE": "98133", "COUNTY": "033", "ZIP_TYPE": "Standard", "PREFERRED_CITY": "SEATTLE", "FEATURE_SOURCE": "Polygon Centroid", "COUNTY_NAME": "King County" }, "geometry": { "type": "Point", "coordinates": [ -122.343905043101159, 47.739680520125454 ] } },
{ "type": "Feature", "properties": { "OBJECTID": 140, "ZIP": 98134, "ZIPCODE": "98134", "COUNTY": "033", "ZIP_TYPE": "Standard", "PREFERRED_CITY": "SEATTLE", "FEATURE_SOURCE": "Polygon Centroid", "COUNTY_NAME": "King County" }, "geometry": { "type": "Point", "coordinates": [ -122.336836227192705, 47.576956440716039 ] } },
{ "type": "Feature", "properties": { "OBJECTID": 141, "ZIP": 98136, "ZIPCODE": "98136", "COUNTY": "033", "ZIP_TYPE": "Standard", "PREFERRED_CITY": "SEATTLE", "FEATURE_SOURCE": "Polygon Centroid", "COUNTY_NAME": "King County" }, "geometry": { "type": "Point", "coordinates": [ -122.389626089581995, 47.53683894072342 ] } },
{ "type": "Feature", "properties": { "OBJECTID": 142, "ZIP": 98144, "ZIPCODE": "98144", "COUNTY": "033", "ZIP_TYPE": "Standard", "PREFERRED_CITY": "SEATTLE", "FEATURE_SOURCE": "Polygon Centroid", "COUNTY_NAME": "King County" }, "geometry": { "type": "Point", "coordinates": [ -122.300994637588104, 47.585266832600219 ] } },
{ "type": "Feature", "properties": { "OBJECTID": 143, "ZIP": 98146, "ZIPCODE": "98146", "COUNTY": "033", "ZIP_TYPE": "Standard", "PREFERRED_CITY": "SEATTLE", "FEATURE_SOURCE": "Polygon Centroid", "COUNTY_NAME": "King County" }, "geometry": { "type": "Point", "coordinates": [ -122.35777926419216, 47.500342352859164 ] } },
{ "type": "Feature", "properties": { "OBJECTID": 144, "ZIP": 98148, "ZIPCODE": "98148", "COUNTY": "033", "ZIP_TYPE": "Standard", "PREFERRED_CITY": "SEATTLE", "FEATURE_SOURCE": "Polygon Centroid", "COUNTY_NAME": "King County" }, "geometry": { "type": "Point", "coordinates": [ -122.325659848188167, 47.44643058178228 ] } },
{ "type": "Feature", "properties": { "OBJECTID": 145, "ZIP": 98154, "ZIPCODE": "98154", "COUNTY": "033", "ZIP_TYPE": "Standard", "PREFERRED_CITY": "SEATTLE", "FEATURE_SOURCE": "Polygon Centroid", "COUNTY_NAME": "King County" }, "geometry": { "type": "Point", "coordinates": [ -122.333790426410317, 47.606212599139688 ] } },
{ "type": "Feature", "properties": { "OBJECTID": 146, "ZIP": 98155, "ZIPCODE": "98155", "COUNTY": "033", "ZIP_TYPE": "Standard", "PREFERRED_CITY": "SEATTLE", "FEATURE_SOURCE": "Polygon Centroid", "COUNTY_NAME": "King County" }, "geometry": { "type": "Point", "coordinates": [ -122.302386712644363, 47.757016796166461 ] } },
{ "type": "Feature", "properties": { "OBJECTID": 147, "ZIP": 98158, "ZIPCODE": "98158", "COUNTY": "033", "ZIP_TYPE": "Standard", "PREFERRED_CITY": "SEATTLE", "FEATURE_SOURCE": "Polygon Centroid", "COUNTY_NAME": "King County" }, "geometry": { "type": "Point", "coordinates": [ -122.307821067266929, 47.449852342164327 ] } },
{ "type": "Feature", "properties": { "OBJECTID": 148, "ZIP": 98164, "ZIPCODE": "98164", "COUNTY": "033", "ZIP_TYPE": "Standard", "PREFERRED_CITY": "SEATTLE", "FEATURE_SOURCE": "Polygon Centroid", "COUNTY_NAME": "King County" }, "geometry": { "type": "Point", "coordinates": [ -122.332019724909898, 47.605966751405653 ] } },
{ "type": "Feature", "properties": { "OBJECTID": 149, "ZIP": 98166, "ZIPCODE": "98166", "COUNTY": "033", "ZIP_TYPE": "Standard", "PREFERRED_CITY": "SEATTLE", "FEATURE_SOURCE": "Polygon Centroid", "COUNTY_NAME": "King County" }, "geometry": { "type": "Point", "coordinates": [ -122.349762275668766, 47.45308838360652 ] } },
{ "type": "Feature", "properties": { "OBJECTID": 150, "ZIP": 98168, "ZIPCODE": "98168", "COUNTY": "033", "ZIP_TYPE": "Standard", "PREFERRED_CITY": "SEATTLE", "FEATURE_SOURCE": "Polygon Centroid", "COUNTY_NAME": "King County" }, "geometry": { "type": "Point", "coordinates": [ -122.300840771219583, 47.489042383650258 ] } },
{ "type": "Feature", "properties": { "OBJECTID": 151, "ZIP": 98177, "ZIPCODE": "98177", "COUNTY": "033", "ZIP_TYPE": "Standard", "PREFERRED_CITY": "SEATTLE", "FEATURE_SOURCE": "Polygon Centroid", "COUNTY_NAME": "King County" }, "geometry": { "type": "Point", "coordinates": [ -122.37053977471011, 47.742459309505385 ] } },
{ "type": "Feature", "properties": { "OBJECTID": 152, "ZIP": 98177, "ZIPCODE": "98177", "COUNTY": "061", "ZIP_TYPE": "Standard", "PREFERRED_CITY": "SEATTLE", "FEATURE_SOURCE": "Polygon Centroid", "COUNTY_NAME": "Snohomish County" }, "geometry": { "type": "Point", "coordinates": [ -122.394526288651221, 47.780107697811303 ] } },
{ "type": "Feature", "properties": { "OBJECTID": 153, "ZIP": 98178, "ZIPCODE": "98178", "COUNTY": "033", "ZIP_TYPE": "Standard", "PREFERRED_CITY": "SEATTLE", "FEATURE_SOURCE": "Polygon Centroid", "COUNTY_NAME": "King County" }, "geometry": { "type": "Point", "coordinates": [ -122.250602971999669, 47.496918607661478 ] } },
{ "type": "Feature", "properties": { "OBJECTID": 154, "ZIP": 98188, "ZIPCODE": "98188", "COUNTY": "033", "ZIP_TYPE": "Standard", "PREFERRED_CITY": "SEATTLE", "FEATURE_SOURCE": "Polygon Centroid", "COUNTY_NAME": "King County" }, "geometry": { "type": "Point", "coordinates": [ -122.274952826619639, 47.447567627986579 ] } },
{ "type": "Feature", "properties": { "OBJECTID": 155, "ZIP": 98195, "ZIPCODE": "98195", "COUNTY": "033", "ZIP_TYPE": "Standard", "PREFERRED_CITY": "SEATTLE", "FEATURE_SOURCE": "Polygon Centroid", "COUNTY_NAME": "King County" }, "geometry": { "type": "Point", "coordinates": [ -122.303024830435291, 47.655059134281082 ] } },
{ "type": "Feature", "properties": { "OBJECTID": 156, "ZIP": 98198, "ZIPCODE": "98198", "COUNTY": "033", "ZIP_TYPE": "Standard", "PREFERRED_CITY": "SEATTLE", "FEATURE_SOURCE": "Polygon Centroid", "COUNTY_NAME": "King County" }, "geometry": { "type": "Point", "coordinates": [ -122.31098011435293, 47.395186465493154 ] } },
{ "type": "Feature", "properties": { "OBJECTID": 157, "ZIP": 98199, "ZIPCODE": "98199", "COUNTY": "033", "ZIP_TYPE": "Standard", "PREFERRED_CITY": "SEATTLE", "FEATURE_SOURCE": "Polygon Centroid", "COUNTY_NAME": "King County" }, "geometry": { "type": "Point", "coordinates": [ -122.402877714349344, 47.651865330039449 ] } },
{ "type": "Feature", "properties": { "OBJECTID": 158, "ZIP": 98201, "ZIPCODE": "98201", "COUNTY": "061", "ZIP_TYPE": "Standard", "PREFERRED_CITY": "EVERETT", "FEATURE_SOURCE": "Polygon Centroid", "COUNTY_NAME": "Snohomish County" }, "geometry": { "type": "Point", "coordinates": [ -122.200241231015767, 47.989882506266049 ] } },
{ "type": "Feature", "properties": { "OBJECTID": 159, "ZIP": 98203, "ZIPCODE": "98203", "COUNTY": "061", "ZIP_TYPE": "Standard", "PREFERRED_CITY": "EVERETT", "FEATURE_SOURCE": "Polygon Centroid", "COUNTY_NAME": "Snohomish County" }, "geometry": { "type": "Point", "coordinates": [ -122.23190104707291, 47.94325211774467 ] } },
{ "type": "Feature", "properties": { "OBJECTID": 160, "ZIP": 98204, "ZIPCODE": "98204", "COUNTY": "061", "ZIP_TYPE": "Standard", "PREFERRED_CITY": "EVERETT", "FEATURE_SOURCE": "Polygon Centroid", "COUNTY_NAME": "Snohomish County" }, "geometry": { "type": "Point", "coordinates": [ -122.262733470514434, 47.904389031370734 ] } },
{ "type": "Feature", "properties": { "OBJECTID": 161, "ZIP": 98205, "ZIPCODE": "98205", "COUNTY": "061", "ZIP_TYPE": "Standard", "PREFERRED_CITY": "EVERETT", "FEATURE_SOURCE": "Polygon Centroid", "COUNTY_NAME": "Snohomish County" }, "geometry": { "type": "Point", "coordinates": [ -122.129910993568444, 47.981864728920328 ] } },
{ "type": "Feature", "properties": { "OBJECTID": 162, "ZIP": 98206, "ZIPCODE": "98260", "COUNTY": "061", "ZIP_TYPE": "Standard", "PREFERRED_CITY": "EVERETT", "FEATURE_SOURCE": "Polygon Centroid", "COUNTY_NAME": "Snohomish County" }, "geometry": { "type": "Point", "coordinates": [ -122.320145096421243, 48.013186966420058 ] } },
{ "type": "Feature", "properties": { "OBJECTID": 163, "ZIP": 98208, "ZIPCODE": "98208", "COUNTY": "061", "ZIP_TYPE": "Standard", "PREFERRED_CITY": "EVERETT", "FEATURE_SOURCE": "Polygon Centroid", "COUNTY_NAME": "Snohomish County" }, "geometry": { "type": "Point", "coordinates": [ -122.193273330789665, 47.897373323765457 ] } },
{ "type": "Feature", "properties": { "OBJECTID": 164, "ZIP": 98223, "ZIPCODE": "98223", "COUNTY": "061", "ZIP_TYPE": "Standard", "PREFERRED_CITY": "ARLINGTON", "FEATURE_SOURCE": "Polygon Centroid", "COUNTY_NAME": "Snohomish County" }, "geometry": { "type": "Point", "coordinates": [ -121.953918505939598, 48.205510637868578 ] } },
{ "type": "Feature", "properties": { "OBJECTID": 165, "ZIP": 98224, "ZIPCODE": "98224", "COUNTY": "033", "ZIP_TYPE": "PO Box", "PREFERRED_CITY": "BARING", "FEATURE_SOURCE": "Polygon Centroid", "COUNTY_NAME": "King County" }, "geometry": { "type": "Point", "coordinates": [ -121.472669208539301, 47.738043721662621 ] } },
{ "type": "Feature", "properties": { "OBJECTID": 166, "ZIP": 98241, "ZIPCODE": "98241", "COUNTY": "061", "ZIP_TYPE": "Standard", "PREFERRED_CITY": "DARRINGTON", "FEATURE_SOURCE": "Polygon Centroid", "COUNTY_NAME": "Snohomish County" }, "geometry": { "type": "Point", "coordinates": [ -121.313913051345338, 48.209251446555477 ] } },
{ "type": "Feature", "properties": { "OBJECTID": 167, "ZIP": 98251, "ZIPCODE": "98251", "COUNTY": "061", "ZIP_TYPE": "Standard", "PREFERRED_CITY": "GOLD BAR", "FEATURE_SOURCE": "Polygon Centroid", "COUNTY_NAME": "Snohomish County" }, "geometry": { "type": "Point", "coordinates": [ -121.635005770635686, 47.823134767621802 ] } },
{ "type": "Feature", "properties": { "OBJECTID": 168, "ZIP": 98252, "ZIPCODE": "98252", "COUNTY": "061", "ZIP_TYPE": "Standard", "PREFERRED_CITY": "GRANITE FALLS", "FEATURE_SOURCE": "Polygon Centroid", "COUNTY_NAME": "Snohomish County" }, "geometry": { "type": "Point", "coordinates": [ -121.512450575554212, 48.057493631960995 ] } },
{ "type": "Feature", "properties": { "OBJECTID": 169, "ZIP": 98258, "ZIPCODE": "98258", "COUNTY": "061", "ZIP_TYPE": "Standard", "PREFERRED_CITY": "LAKE STEVENS", "FEATURE_SOURCE": "Polygon Centroid", "COUNTY_NAME": "Snohomish County" }, "geometry": { "type": "Point", "coordinates": [ -122.062686101459917, 48.044354228851269 ] } },
{ "type": "Feature", "properties": { "OBJECTID": 170, "ZIP": 98270, "ZIPCODE": "98270", "COUNTY": "061", "ZIP_TYPE": "Standard", "PREFERRED_CITY": "MARYSVILLE", "FEATURE_SOURCE": "Polygon Centroid", "COUNTY_NAME": "Snohomish County" }, "geometry": { "type": "Point", "coordinates": [ -122.14726442403132, 48.060334861939559 ] } },
{ "type": "Feature", "properties": { "OBJECTID": 171, "ZIP": 98271, "ZIPCODE": "98271", "COUNTY": "061", "ZIP_TYPE": "Standard", "PREFERRED_CITY": "MARYSVILLE", "FEATURE_SOURCE": "Polygon Centroid", "COUNTY_NAME": "Snohomish County" }, "geometry": { "type": "Point", "coordinates": [ -122.230543152087265, 48.084812804340054 ] } },
{ "type": "Feature", "properties": { "OBJECTID": 172, "ZIP": 98272, "ZIPCODE": "98272", "COUNTY": "061", "ZIP_TYPE": "Standard", "PREFERRED_CITY": "MONROE", "FEATURE_SOURCE": "Polygon Centroid", "COUNTY_NAME": "Snohomish County" }, "geometry": { "type": "Point", "coordinates": [ -121.908726877746759, 47.846979547495557 ] } },
{ "type": "Feature", "properties": { "OBJECTID": 173, "ZIP": 98275, "ZIPCODE": "98275", "COUNTY": "061", "ZIP_TYPE": "Standard", "PREFERRED_CITY": "MUKILTEO", "FEATURE_SOURCE": "Polygon Centroid", "COUNTY_NAME": "Snohomish County" }, "geometry": { "type": "Point", "coordinates": [ -122.305156685405436, 47.913911274709818 ] } },
{ "type": "Feature", "properties": { "OBJECTID": 174, "ZIP": 98282, "ZIPCODE": "98282", "COUNTY": "061", "ZIP_TYPE": "Standard", "PREFERRED_CITY": "CAMANO ISLAND", "FEATURE_SOURCE": "Polygon Centroid", "COUNTY_NAME": "Snohomish County" }, "geometry": { "type": "Point", "coordinates": [ -122.388691571104829, 48.236087887472671 ] } },
{ "type": "Feature", "properties": { "OBJECTID": 175, "ZIP": 98288, "ZIPCODE": "98288", "COUNTY": "033", "ZIP_TYPE": "PO Box", "PREFERRED_CITY": "SKYKOMISH", "FEATURE_SOURCE": "Polygon Centroid", "COUNTY_NAME": "King County" }, "geometry": { "type": "Point", "coordinates": [ -121.335676586343482, 47.640768999653474 ] } },
{ "type": "Feature", "properties": { "OBJECTID": 176, "ZIP": 98290, "ZIPCODE": "98290", "COUNTY": "061", "ZIP_TYPE": "Standard", "PREFERRED_CITY": "SNOHOMISH", "FEATURE_SOURCE": "Polygon Centroid", "COUNTY_NAME": "Snohomish County" }, "geometry": { "type": "Point", "coordinates": [ -121.999287271674604, 47.946739325133564 ] } },
{ "type": "Feature", "properties": { "OBJECTID": 177, "ZIP": 98292, "ZIPCODE": "98292", "COUNTY": "061", "ZIP_TYPE": "Standard", "PREFERRED_CITY": "STANWOOD", "FEATURE_SOURCE": "Polygon Centroid", "COUNTY_NAME": "Snohomish County" }, "geometry": { "type": "Point", "coordinates": [ -122.304302047271477, 48.220566345538714 ] } },
{ "type": "Feature", "properties": { "OBJECTID": 178, "ZIP": 98294, "ZIPCODE": "98294", "COUNTY": "061", "ZIP_TYPE": "Standard", "PREFERRED_CITY": "SULTAN", "FEATURE_SOURCE": "Polygon Centroid", "COUNTY_NAME": "Snohomish County" }, "geometry": { "type": "Point", "coordinates": [ -121.467065622488079, 47.885470837128096 ] } },
{ "type": "Feature", "properties": { "OBJECTID": 179, "ZIP": 98296, "ZIPCODE": "98296", "COUNTY": "061", "ZIP_TYPE": "Standard", "PREFERRED_CITY": "SNOHOMISH", "FEATURE_SOURCE": "Polygon Centroid", "COUNTY_NAME": "Snohomish County" }, "geometry": { "type": "Point", "coordinates": [ -122.104973472044904, 47.847170276245031 ] } },
{ "type": "Feature", "properties": { "OBJECTID": 180, "ZIP": 98303, "ZIPCODE": "98303", "COUNTY": "053", "ZIP_TYPE": "Standard", "PREFERRED_CITY": "ANDERSON ISLAND", "FEATURE_SOURCE": "Polygon Centroid", "COUNTY_NAME": "Pierce County" }, "geometry": { "type": "Point", "coordinates": [ -122.70385448027497, 47.158347849465052 ] } },
{ "type": "Feature", "properties": { "OBJECTID": 181, "ZIP": 98304, "ZIPCODE": "98304", "COUNTY": "053", "ZIP_TYPE": "Standard", "PREFERRED_CITY": "ASHFORD", "FEATURE_SOURCE": "Polygon Centroid", "COUNTY_NAME": "Pierce County" }, "geometry": { "type": "Point", "coordinates": [ -122.022986628703777, 46.75573139257083 ] } },
{ "type": "Feature", "properties": { "OBJECTID": 182, "ZIP": 98310, "ZIPCODE": "98310", "COUNTY": "035", "ZIP_TYPE": "Standard", "PREFERRED_CITY": "BREMERTON", "FEATURE_SOURCE": "Polygon Centroid", "COUNTY_NAME": "Kitsap County" }, "geometry": { "type": "Point", "coordinates": [ -122.622758008386029, 47.592285314571569 ] } },
{ "type": "Feature", "properties": { "OBJECTID": 183, "ZIP": 98311, "ZIPCODE": "98311", "COUNTY": "035", "ZIP_TYPE": "Standard", "PREFERRED_CITY": "BREMERTON", "FEATURE_SOURCE": "Polygon Centroid", "COUNTY_NAME": "Kitsap County" }, "geometry": { "type": "Point", "coordinates": [ -122.635560219111369, 47.630003689169278 ] } },
{ "type": "Feature", "properties": { "OBJECTID": 184, "ZIP": 98312, "ZIPCODE": "98312", "COUNTY": "035", "ZIP_TYPE": "Standard", "PREFERRED_CITY": "BREMERTON", "FEATURE_SOURCE": "Polygon Centroid", "COUNTY_NAME": "Kitsap County" }, "geometry": { "type": "Point", "coordinates": [ -122.762351082533513, 47.566494610150897 ] } },
{ "type": "Feature", "properties": { "OBJECTID": 185, "ZIP": 98314, "ZIPCODE": "98314", "COUNTY": "035", "ZIP_TYPE": "Unique", "PREFERRED_CITY": "BREMERTON", "FEATURE_SOURCE": "Polygon Centroid", "COUNTY_NAME": "Kitsap County" }, "geometry": { "type": "Point", "coordinates": [ -122.642758486123853, 47.559848391460555 ] } },
{ "type": "Feature", "properties": { "OBJECTID": 186, "ZIP": 98315, "ZIPCODE": "98315", "COUNTY": "035", "ZIP_TYPE": "Standard", "PREFERRED_CITY": "SILVERDALE", "FEATURE_SOURCE": "Polygon Centroid", "COUNTY_NAME": "Kitsap County" }, "geometry": { "type": "Point", "coordinates": [ -122.714365307692461, 47.722532530332487 ] } },
{ "type": "Feature", "properties": { "OBJECTID": 187, "ZIP": 98321, "ZIPCODE": "98321", "COUNTY": "053", "ZIP_TYPE": "Standard", "PREFERRED_CITY": "BUCKLEY", "FEATURE_SOURCE": "Polygon Centroid", "COUNTY_NAME": "Pierce County" }, "geometry": { "type": "Point", "coordinates": [ -122.047549493249392, 47.141727054130236 ] } },
{ "type": "Feature", "properties": { "OBJECTID": 188, "ZIP": 98323, "ZIPCODE": "98323", "COUNTY": "053", "ZIP_TYPE": "Standard", "PREFERRED_CITY": "CARBONADO", "FEATURE_SOURCE": "Polygon Centroid", "COUNTY_NAME": "Pierce County" }, "geometry": { "type": "Point", "coordinates": [ -122.036428831641757, 47.050862167386519 ] } },
{ "type": "Feature", "properties": { "OBJECTID": 189, "ZIP": 98327, "ZIPCODE": "98327", "COUNTY": "053", "ZIP_TYPE": "Standard", "PREFERRED_CITY": "DUPONT", "FEATURE_SOURCE": "Polygon Centroid", "COUNTY_NAME": "Pierce County" }, "geometry": { "type": "Point", "coordinates": [ -122.65448167488465, 47.104116934766083 ] } },
{ "type": "Feature", "properties": { "OBJECTID": 190, "ZIP": 98328, "ZIPCODE": "98328", "COUNTY": "053", "ZIP_TYPE": "Standard", "PREFERRED_CITY": "EATONVILLE", "FEATURE_SOURCE": "Polygon Centroid", "COUNTY_NAME": "Pierce County" }, "geometry": { "type": "Point", "coordinates": [ -122.294203170424638, 46.873464324862773 ] } },
{ "type": "Feature", "properties": { "OBJECTID": 191, "ZIP": 98329, "ZIPCODE": "98329", "COUNTY": "053", "ZIP_TYPE": "Standard", "PREFERRED_CITY": "GIG HARBOR", "FEATURE_SOURCE": "Polygon Centroid", "COUNTY_NAME": "Pierce County" }, "geometry": { "type": "Point", "coordinates": [ -122.727380729487592, 47.377479611093641 ] } },
{ "type": "Feature", "properties": { "OBJECTID": 192, "ZIP": 98330, "ZIPCODE": "98330", "COUNTY": "053", "ZIP_TYPE": "Standard", "PREFERRED_CITY": "ELBE", "FEATURE_SOURCE": "Polygon Centroid", "COUNTY_NAME": "Pierce County" }, "geometry": { "type": "Point", "coordinates": [ -122.176865652661576, 46.762449619937136 ] } },
{ "type": "Feature", "properties": { "OBJECTID": 193, "ZIP": 98332, "ZIPCODE": "98332", "COUNTY": "053", "ZIP_TYPE": "Standard", "PREFERRED_CITY": "GIG HARBOR", "FEATURE_SOURCE": "Polygon Centroid", "COUNTY_NAME": "Pierce County" }, "geometry": { "type": "Point", "coordinates": [ -122.598104227274106, 47.365224888808207 ] } },
{ "type": "Feature", "properties": { "OBJECTID": 194, "ZIP": 98333, "ZIPCODE": "98333", "COUNTY": "053", "ZIP_TYPE": "Standard", "PREFERRED_CITY": "FOX ISLAND", "FEATURE_SOURCE": "Polygon Centroid", "COUNTY_NAME": "Pierce County" }, "geometry": { "type": "Point", "coordinates": [ -122.624269232825824, 47.246604404215681 ] } },
{ "type": "Feature", "properties": { "OBJECTID": 195, "ZIP": 98335, "ZIPCODE": "98335", "COUNTY": "053", "ZIP_TYPE": "Standard", "PREFERRED_CITY": "GIG HARBOR", "FEATURE_SOURCE": "Polygon Centroid", "COUNTY_NAME": "Pierce County" }, "geometry": { "type": "Point", "coordinates": [ -122.58522710487577, 47.292702304668332 ] } },
{ "type": "Feature", "properties": { "OBJECTID": 196, "ZIP": 98337, "ZIPCODE": "98337", "COUNTY": "035", "ZIP_TYPE": "Standard", "PREFERRED_CITY": "BREMERTON", "FEATURE_SOURCE": "Polygon Centroid", "COUNTY_NAME": "Kitsap County" }, "geometry": { "type": "Point", "coordinates": [ -122.635699061690033, 47.570648266690398 ] } },
{ "type": "Feature", "properties": { "OBJECTID": 197, "ZIP": 98338, "ZIPCODE": "98338", "COUNTY": "053", "ZIP_TYPE": "Standard", "PREFERRED_CITY": "GRAHAM", "FEATURE_SOURCE": "Polygon Centroid", "COUNTY_NAME": "Pierce County" }, "geometry": { "type": "Point", "coordinates": [ -122.281378704671837, 47.013786808141411 ] } },
{ "type": "Feature", "properties": { "OBJECTID": 198, "ZIP": 98340, "ZIPCODE": "98340", "COUNTY": "035", "ZIP_TYPE": "Standard", "PREFERRED_CITY": "HANSVILLE", "FEATURE_SOURCE": "Polygon Centroid", "COUNTY_NAME": "Kitsap County" }, "geometry": { "type": "Point", "coordinates": [ -122.565252199648143, 47.905778015145785 ] } },
{ "type": "Feature", "properties": { "OBJECTID": 199, "ZIP": 98342, "ZIPCODE": "98342", "COUNTY": "035", "ZIP_TYPE": "Standard", "PREFERRED_CITY": "INDIANOLA", "FEATURE_SOURCE": "Polygon Centroid", "COUNTY_NAME": "Kitsap County" }, "geometry": { "type": "Point", "coordinates": [ -122.514091334789967, 47.75538180488816 ] } },
{ "type": "Feature", "properties": { "OBJECTID": 200, "ZIP": 98345, "ZIPCODE": "98345", "COUNTY": "035", "ZIP_TYPE": "PO Box", "PREFERRED_CITY": "KEYPORT", "FEATURE_SOURCE": "Polygon Centroid", "COUNTY_NAME": "Kitsap County" }, "geometry": { "type": "Point", "coordinates": [ -122.623454694039438, 47.698594761450387 ] } },
{ "type": "Feature", "properties": { "OBJECTID": 201, "ZIP": 98346, "ZIPCODE": "98346", "COUNTY": "035", "ZIP_TYPE": "Standard", "PREFERRED_CITY": "KINGSTON", "FEATURE_SOURCE": "Polygon Centroid", "COUNTY_NAME": "Kitsap County" }, "geometry": { "type": "Point", "coordinates": [ -122.532425316343804, 47.826076343927085 ] } },
{ "type": "Feature", "properties": { "OBJECTID": 202, "ZIP": 98349, "ZIPCODE": "98349", "COUNTY": "053", "ZIP_TYPE": "Standard", "PREFERRED_CITY": "LAKEBAY", "FEATURE_SOURCE": "Polygon Centroid", "COUNTY_NAME": "Pierce County" }, "geometry": { "type": "Point", "coordinates": [ -122.802956916191064, 47.255656808015182 ] } },
{ "type": "Feature", "properties": { "OBJECTID": 203, "ZIP": 98351, "ZIPCODE": "98351", "COUNTY": "053", "ZIP_TYPE": "Standard", "PREFERRED_CITY": "LONGBRANCH", "FEATURE_SOURCE": "Polygon Centroid", "COUNTY_NAME": "Pierce County" }, "geometry": { "type": "Point", "coordinates": [ -122.771127470252864, 47.204527869715015 ] } },
{ "type": "Feature", "properties": { "OBJECTID": 204, "ZIP": 98354, "ZIPCODE": "98354", "COUNTY": "033", "ZIP_TYPE": "Standard", "PREFERRED_CITY": "MILTON", "FEATURE_SOURCE": "Polygon Centroid", "COUNTY_NAME": "King County" }, "geometry": { "type": "Point", "coordinates": [ -122.321461399461768, 47.260909035042502 ] } },
{ "type": "Feature", "properties": { "OBJECTID": 205, "ZIP": 98354, "ZIPCODE": "98354", "COUNTY": "053", "ZIP_TYPE": "Standard", "PREFERRED_CITY": "MILTON", "FEATURE_SOURCE": "Polygon Centroid", "COUNTY_NAME": "Pierce County" }, "geometry": { "type": "Point", "coordinates": [ -122.314330581273438, 47.249316030796749 ] } },
{ "type": "Feature", "properties": { "OBJECTID": 206, "ZIP": 98359, "ZIPCODE": "98359", "COUNTY": "035", "ZIP_TYPE": "Standard", "PREFERRED_CITY": "OLALLA", "FEATURE_SOURCE": "Polygon Centroid", "COUNTY_NAME": "Kitsap County" }, "geometry": { "type": "Point", "coordinates": [ -122.57534041644, 47.430699796308893 ] } },
{ "type": "Feature", "properties": { "OBJECTID": 207, "ZIP": 98360, "ZIPCODE": "98360", "COUNTY": "053", "ZIP_TYPE": "Standard", "PREFERRED_CITY": "ORTING", "FEATURE_SOURCE": "Polygon Centroid", "COUNTY_NAME": "Pierce County" }, "geometry": { "type": "Point", "coordinates": [ -122.17277168478563, 47.041318140555703 ] } },
{ "type": "Feature", "properties": { "OBJECTID": 208, "ZIP": 98366, "ZIPCODE": "98366", "COUNTY": "035", "ZIP_TYPE": "Standard", "PREFERRED_CITY": "PORT ORCHARD", "FEATURE_SOURCE": "Polygon Centroid", "COUNTY_NAME": "Kitsap County" }, "geometry": { "type": "Point", "coordinates": [ -122.584213968245805, 47.533486690421896 ] } },
{ "type": "Feature", "properties": { "OBJECTID": 209, "ZIP": 98367, "ZIPCODE": "98367", "COUNTY": "035", "ZIP_TYPE": "Standard", "PREFERRED_CITY": "PORT ORCHARD", "FEATURE_SOURCE": "Polygon Centroid", "COUNTY_NAME": "Kitsap County" }, "geometry": { "type": "Point", "coordinates": [ -122.678908987205688, 47.462672450781064 ] } },
{ "type": "Feature", "properties": { "OBJECTID": 210, "ZIP": 98370, "ZIPCODE": "98370", "COUNTY": "035", "ZIP_TYPE": "Standard", "PREFERRED_CITY": "POULSBO", "FEATURE_SOURCE": "Polygon Centroid", "COUNTY_NAME": "Kitsap County" }, "geometry": { "type": "Point", "coordinates": [ -122.620756545767549, 47.757236868218996 ] } },
{ "type": "Feature", "properties": { "OBJECTID": 211, "ZIP": 98371, "ZIPCODE": "98371", "COUNTY": "053", "ZIP_TYPE": "Standard", "PREFERRED_CITY": "PUYALLUP", "FEATURE_SOURCE": "Polygon Centroid", "COUNTY_NAME": "Pierce County" }, "geometry": { "type": "Point", "coordinates": [ -122.322465486505379, 47.201839523140343 ] } },
{ "type": "Feature", "properties": { "OBJECTID": 212, "ZIP": 98372, "ZIPCODE": "98372", "COUNTY": "053", "ZIP_TYPE": "Standard", "PREFERRED_CITY": "PUYALLUP", "FEATURE_SOURCE": "Polygon Centroid", "COUNTY_NAME": "Pierce County" }, "geometry": { "type": "Point", "coordinates": [ -122.274290611514914, 47.21340539067527 ] } },
{ "type": "Feature", "properties": { "OBJECTID": 213, "ZIP": 98373, "ZIPCODE": "98373", "COUNTY": "053", "ZIP_TYPE": "Standard", "PREFERRED_CITY": "PUYALLUP", "FEATURE_SOURCE": "Polygon Centroid", "COUNTY_NAME": "Pierce County" }, "geometry": { "type": "Point", "coordinates": [ -122.324901479826053, 47.147687492773422 ] } },
{ "type": "Feature", "properties": { "OBJECTID": 214, "ZIP": 98374, "ZIPCODE": "98374", "COUNTY": "053", "ZIP_TYPE": "Standard", "PREFERRED_CITY": "PUYALLUP", "FEATURE_SOURCE": "Polygon Centroid", "COUNTY_NAME": "Pierce County" }, "geometry": { "type": "Point", "coordinates": [ -122.262391636800118, 47.128393425227173 ] } },
{ "type": "Feature", "properties": { "OBJECTID": 215, "ZIP": 98375, "ZIPCODE": "98375", "COUNTY": "053", "ZIP_TYPE": "Standard", "PREFERRED_CITY": "PUYALLUP", "FEATURE_SOURCE": "Polygon Centroid", "COUNTY_NAME": "Pierce County" }, "geometry": { "type": "Point", "coordinates": [ -122.324625551644942, 47.103726782909341 ] } },
{ "type": "Feature", "properties": { "OBJECTID": 216, "ZIP": 98380, "ZIPCODE": "98380", "COUNTY": "035", "ZIP_TYPE": "Standard", "PREFERRED_CITY": "SEABECK", "FEATURE_SOURCE": "Polygon Centroid", "COUNTY_NAME": "Kitsap County" }, "geometry": { "type": "Point", "coordinates": [ -122.896526644633283, 47.578248557122947 ] } },
{ "type": "Feature", "properties": { "OBJECTID": 217, "ZIP": 98383, "ZIPCODE": "98383", "COUNTY": "035", "ZIP_TYPE": "Standard", "PREFERRED_CITY": "SILVERDALE", "FEATURE_SOURCE": "Polygon Centroid", "COUNTY_NAME": "Kitsap County" }, "geometry": { "type": "Point", "coordinates": [ -122.71738610862846, 47.656168861795436 ] } },
{ "type": "Feature", "properties": { "OBJECTID": 218, "ZIP": 98385, "ZIPCODE": "98385", "COUNTY": "053", "ZIP_TYPE": "Standard", "PREFERRED_CITY": "SOUTH PRAIRIE", "FEATURE_SOURCE": "Polygon Centroid", "COUNTY_NAME": "Pierce County" }, "geometry": { "type": "Point", "coordinates": [ -122.093841483215598, 47.137231659367252 ] } },
{ "type": "Feature", "properties": { "OBJECTID": 219, "ZIP": 98387, "ZIPCODE": "98387", "COUNTY": "053", "ZIP_TYPE": "Standard", "PREFERRED_CITY": "SPANAWAY", "FEATURE_SOURCE": "Polygon Centroid", "COUNTY_NAME": "Pierce County" }, "geometry": { "type": "Point", "coordinates": [ -122.389529451137292, 47.061639395707537 ] } },
{ "type": "Feature", "properties": { "OBJECTID": 220, "ZIP": 98388, "ZIPCODE": "98388", "COUNTY": "053", "ZIP_TYPE": "Standard", "PREFERRED_CITY": "STEILACOOM", "FEATURE_SOURCE": "Polygon Centroid", "COUNTY_NAME": "Pierce County" }, "geometry": { "type": "Point", "coordinates": [ -122.684044762983319, 47.209635717605728 ] } },
{ "type": "Feature", "properties": { "OBJECTID": 221, "ZIP": 98390, "ZIPCODE": "98390", "COUNTY": "053", "ZIP_TYPE": "Standard", "PREFERRED_CITY": "SUMNER", "FEATURE_SOURCE": "Polygon Centroid", "COUNTY_NAME": "Pierce County" }, "geometry": { "type": "Point", "coordinates": [ -122.229216281499916, 47.212414567117037 ] } },
{ "type": "Feature", "properties": { "OBJECTID": 222, "ZIP": 98391, "ZIPCODE": "98391", "COUNTY": "053", "ZIP_TYPE": "Standard", "PREFERRED_CITY": "BONNEY LAKE", "FEATURE_SOURCE": "Polygon Centroid", "COUNTY_NAME": "Pierce County" }, "geometry": { "type": "Point", "coordinates": [ -122.174293886610897, 47.176744982857997 ] } },
{ "type": "Feature", "properties": { "OBJECTID": 223, "ZIP": 98392, "ZIPCODE": "98392", "COUNTY": "035", "ZIP_TYPE": "Standard", "PREFERRED_CITY": "SUQUAMISH", "FEATURE_SOURCE": "Polygon Centroid", "COUNTY_NAME": "Kitsap County" }, "geometry": { "type": "Point", "coordinates": [ -122.563907981954358, 47.734765937216686 ] } },
{ "type": "Feature", "properties": { "OBJECTID": 224, "ZIP": 98394, "ZIPCODE": "98394", "COUNTY": "053", "ZIP_TYPE": "Standard", "PREFERRED_CITY": "VAUGHN", "FEATURE_SOURCE": "Polygon Centroid", "COUNTY_NAME": "Pierce County" }, "geometry": { "type": "Point", "coordinates": [ -122.775651326254533, 47.324243077631067 ] } },
{ "type": "Feature", "properties": { "OBJECTID": 225, "ZIP": 98396, "ZIPCODE": "98396", "COUNTY": "053", "ZIP_TYPE": "Standard", "PREFERRED_CITY": "WILKESON", "FEATURE_SOURCE": "Polygon Centroid", "COUNTY_NAME": "Pierce County" }, "geometry": { "type": "Point", "coordinates": [ -122.053359858712554, 46.879906412056656 ] } },
{ "type": "Feature", "properties": { "OBJECTID": 226, "ZIP": 98397, "ZIPCODE": "98397", "COUNTY": "053", "ZIP_TYPE": "Standard", "PREFERRED_CITY": "LONGMIRE", "FEATURE_SOURCE": "Polygon Centroid", "COUNTY_NAME": "Pierce County" }, "geometry": { "type": "Point", "coordinates": [ -121.719522486113505, 46.877602644961449 ] } },
{ "type": "Feature", "properties": { "OBJECTID": 227, "ZIP": 98402, "ZIPCODE": "98402", "COUNTY": "053", "ZIP_TYPE": "Standard", "PREFERRED_CITY": "TACOMA", "FEATURE_SOURCE": "Polygon Centroid", "COUNTY_NAME": "Pierce County" }, "geometry": { "type": "Point", "coordinates": [ -122.439233909350776, 47.248422998520766 ] } },
{ "type": "Feature", "properties": { "OBJECTID": 228, "ZIP": 98403, "ZIPCODE": "98403", "COUNTY": "053", "ZIP_TYPE": "Standard", "PREFERRED_CITY": "TACOMA", "FEATURE_SOURCE": "Polygon Centroid", "COUNTY_NAME": "Pierce County" }, "geometry": { "type": "Point", "coordinates": [ -122.459425778295554, 47.266110872210305 ] } },
{ "type": "Feature", "properties": { "OBJECTID": 229, "ZIP": 98404, "ZIPCODE": "98404", "COUNTY": "053", "ZIP_TYPE": "Standard", "PREFERRED_CITY": "TACOMA", "FEATURE_SOURCE": "Polygon Centroid", "COUNTY_NAME": "Pierce County" }, "geometry": { "type": "Point", "coordinates": [ -122.409994559616123, 47.209573667841774 ] } },
{ "type": "Feature", "properties": { "OBJECTID": 230, "ZIP": 98405, "ZIPCODE": "98405", "COUNTY": "053", "ZIP_TYPE": "Standard", "PREFERRED_CITY": "TACOMA", "FEATURE_SOURCE": "Polygon Centroid", "COUNTY_NAME": "Pierce County" }, "geometry": { "type": "Point", "coordinates": [ -122.472755279961191, 47.245892394968557 ] } },
{ "type": "Feature", "properties": { "OBJECTID": 231, "ZIP": 98406, "ZIPCODE": "98406", "COUNTY": "053", "ZIP_TYPE": "Standard", "PREFERRED_CITY": "TACOMA", "FEATURE_SOURCE": "Polygon Centroid", "COUNTY_NAME": "Pierce County" }, "geometry": { "type": "Point", "coordinates": [ -122.50760687545845, 47.262732135092392 ] } },
{ "type": "Feature", "properties": { "OBJECTID": 232, "ZIP": 98407, "ZIPCODE": "98407", "COUNTY": "053", "ZIP_TYPE": "Standard", "PREFERRED_CITY": "TACOMA", "FEATURE_SOURCE": "Polygon Centroid", "COUNTY_NAME": "Pierce County" }, "geometry": { "type": "Point", "coordinates": [ -122.511255406985882, 47.288488978887216 ] } },
{ "type": "Feature", "properties": { "OBJECTID": 233, "ZIP": 98408, "ZIPCODE": "98408", "COUNTY": "053", "ZIP_TYPE": "Standard", "PREFERRED_CITY": "TACOMA", "FEATURE_SOURCE": "Polygon Centroid", "COUNTY_NAME": "Pierce County" }, "geometry": { "type": "Point", "coordinates": [ -122.446862447276416, 47.197871555254039 ] } },
{ "type": "Feature", "properties": { "OBJECTID": 234, "ZIP": 98409, "ZIPCODE": "98409", "COUNTY": "053", "ZIP_TYPE": "Standard", "PREFERRED_CITY": "TACOMA", "FEATURE_SOURCE": "Polygon Centroid", "COUNTY_NAME": "Pierce County" }, "geometry": { "type": "Point", "coordinates": [ -122.482092495214772, 47.210824532088353 ] } },
{ "type": "Feature", "properties": { "OBJECTID": 235, "ZIP": 98416, "ZIPCODE": "98416", "COUNTY": "053", "ZIP_TYPE": "Unique", "PREFERRED_CITY": "TACOMA", "FEATURE_SOURCE": "Polygon Centroid", "COUNTY_NAME": "Pierce County" }, "geometry": { "type": "Point", "coordinates": [ -122.481438919814323, 47.261957575988859 ] } },
{ "type": "Feature", "properties": { "OBJECTID": 236, "ZIP": 98418, "ZIPCODE": "98418", "COUNTY": "053", "ZIP_TYPE": "Standard", "PREFERRED_CITY": "TACOMA", "FEATURE_SOURCE": "Polygon Centroid", "COUNTY_NAME": "Pierce County" }, "geometry": { "type": "Point", "coordinates": [ -122.446754459193784, 47.223080462234414 ] } },
{ "type": "Feature", "properties": { "OBJECTID": 237, "ZIP": 98421, "ZIPCODE": "98421", "COUNTY": "053", "ZIP_TYPE": "Standard", "PREFERRED_CITY": "TACOMA", "FEATURE_SOURCE": "Polygon Centroid", "COUNTY_NAME": "Pierce County" }, "geometry": { "type": "Point", "coordinates": [ -122.401456388834873, 47.257364392881563 ] } },
{ "type": "Feature", "properties": { "OBJECTID": 238, "ZIP": 98422, "ZIPCODE": "98422", "COUNTY": "033", "ZIP_TYPE": "Standard", "PREFERRED_CITY": "TACOMA", "FEATURE_SOURCE": "Polygon Centroid", "COUNTY_NAME": "King County" }, "geometry": { "type": "Point", "coordinates": [ -122.333672912023729, 47.260005233889714 ] } },
{ "type": "Feature", "properties": { "OBJECTID": 239, "ZIP": 98422, "ZIPCODE": "98422", "COUNTY": "053", "ZIP_TYPE": "Standard", "PREFERRED_CITY": "TACOMA", "FEATURE_SOURCE": "Polygon Centroid", "COUNTY_NAME": "Pierce County" }, "geometry": { "type": "Point", "coordinates": [ -122.391314469004925, 47.289476101593728 ] } },
{ "type": "Feature", "properties": { "OBJECTID": 240, "ZIP": 98424, "ZIPCODE": "98424", "COUNTY": "053", "ZIP_TYPE": "Standard", "PREFERRED_CITY": "TACOMA", "FEATURE_SOURCE": "Polygon Centroid", "COUNTY_NAME": "Pierce County" }, "geometry": { "type": "Point", "coordinates": [ -122.356879665304021, 47.238308631108552 ] } },
{ "type": "Feature", "properties": { "OBJECTID": 241, "ZIP": 98430, "ZIPCODE": "98430", "COUNTY": "053", "ZIP_TYPE": "Standard", "PREFERRED_CITY": "CAMP MURRAY", "FEATURE_SOURCE": "Polygon Centroid", "COUNTY_NAME": "Pierce County" }, "geometry": { "type": "Point", "coordinates": [ -122.568958303904353, 47.117292143318231 ] } },
{ "type": "Feature", "properties": { "OBJECTID": 242, "ZIP": 98433, "ZIPCODE": "98433", "COUNTY": "053", "ZIP_TYPE": "Standard", "PREFERRED_CITY": "TACOMA", "FEATURE_SOURCE": "Polygon Centroid", "COUNTY_NAME": "Pierce County" }, "geometry": { "type": "Point", "coordinates": [ -122.551348680605258, 47.055400949803818 ] } },
{ "type": "Feature", "properties": { "OBJECTID": 243, "ZIP": 98438, "ZIPCODE": "98438", "COUNTY": "053", "ZIP_TYPE": "Standard", "PREFERRED_CITY": "TACOMA", "FEATURE_SOURCE": "Polygon Centroid", "COUNTY_NAME": "Pierce County" }, "geometry": { "type": "Point", "coordinates": [ -122.485822992824481, 47.128023361531199 ] } },
{ "type": "Feature", "properties": { "OBJECTID": 244, "ZIP": 98439, "ZIPCODE": "98439", "COUNTY": "053", "ZIP_TYPE": "Standard", "PREFERRED_CITY": "LAKEWOOD", "FEATURE_SOURCE": "Polygon Centroid", "COUNTY_NAME": "Pierce County" }, "geometry": { "type": "Point", "coordinates": [ -122.528819480144293, 47.126776384051425 ] } },
{ "type": "Feature", "properties": { "OBJECTID": 245, "ZIP": 98443, "ZIPCODE": "98443", "COUNTY": "053", "ZIP_TYPE": "Standard", "PREFERRED_CITY": "TACOMA", "FEATURE_SOURCE": "Polygon Centroid", "COUNTY_NAME": "Pierce County" }, "geometry": { "type": "Point", "coordinates": [ -122.373867777870259, 47.205058779215356 ] } },
{ "type": "Feature", "properties": { "OBJECTID": 246, "ZIP": 98444, "ZIPCODE": "98444", "COUNTY": "053", "ZIP_TYPE": "Standard", "PREFERRED_CITY": "TACOMA", "FEATURE_SOURCE": "Polygon Centroid", "COUNTY_NAME": "Pierce County" }, "geometry": { "type": "Point", "coordinates": [ -122.449487477267539, 47.151812995954181 ] } },
{ "type": "Feature", "properties": { "OBJECTID": 247, "ZIP": 98445, "ZIPCODE": "98445", "COUNTY": "053", "ZIP_TYPE": "Standard", "PREFERRED_CITY": "TACOMA", "FEATURE_SOURCE": "Polygon Centroid", "COUNTY_NAME": "Pierce County" }, "geometry": { "type": "Point", "coordinates": [ -122.41057671922988, 47.144499198324993 ] } },
{ "type": "Feature", "properties": { "OBJECTID": 248, "ZIP": 98446, "ZIPCODE": "98446", "COUNTY": "053", "ZIP_TYPE": "Standard", "PREFERRED_CITY": "TACOMA", "FEATURE_SOURCE": "Polygon Centroid", "COUNTY_NAME": "Pierce County" }, "geometry": { "type": "Point", "coordinates": [ -122.373590914676953, 47.129937818623091 ] } },
{ "type": "Feature", "properties": { "OBJECTID": 249, "ZIP": 98447, "ZIPCODE": "98447", "COUNTY": "053", "ZIP_TYPE": "Unique", "PREFERRED_CITY": "TACOMA", "FEATURE_SOURCE": "Polygon Centroid", "COUNTY_NAME": "Pierce County" }, "geometry": { "type": "Point", "coordinates": [ -122.443619230799285, 47.145272132051666 ] } },
{ "type": "Feature", "properties": { "OBJECTID": 250, "ZIP": 98465, "ZIPCODE": "98465", "COUNTY": "053", "ZIP_TYPE": "Standard", "PREFERRED_CITY": "TACOMA", "FEATURE_SOURCE": "Polygon Centroid", "COUNTY_NAME": "Pierce County" }, "geometry": { "type": "Point", "coordinates": [ -122.528560683443231, 47.248751947809801 ] } },
{ "type": "Feature", "properties": { "OBJECTID": 251, "ZIP": 98466, "ZIPCODE": "98466", "COUNTY": "053", "ZIP_TYPE": "Standard", "PREFERRED_CITY": "TACOMA", "FEATURE_SOURCE": "Polygon Centroid", "COUNTY_NAME": "Pierce County" }, "geometry": { "type": "Point", "coordinates": [ -122.535928608469106, 47.22788493433201 ] } },
{ "type": "Feature", "properties": { "OBJECTID": 252, "ZIP": 98467, "ZIPCODE": "98467", "COUNTY": "053", "ZIP_TYPE": "Standard", "PREFERRED_CITY": "UNIVERSITY PLACE", "FEATURE_SOURCE": "Polygon Centroid", "COUNTY_NAME": "Pierce County" }, "geometry": { "type": "Point", "coordinates": [ -122.542479497775034, 47.204476633318897 ] } },
{ "type": "Feature", "properties": { "OBJECTID": 253, "ZIP": 98498, "ZIPCODE": "98498", "COUNTY": "053", "ZIP_TYPE": "Standard", "PREFERRED_CITY": "LAKEWOOD", "FEATURE_SOURCE": "Polygon Centroid", "COUNTY_NAME": "Pierce County" }, "geometry": { "type": "Point", "coordinates": [ -122.554644436301189, 47.161075767749168 ] } },
{ "type": "Feature", "properties": { "OBJECTID": 254, "ZIP": 98499, "ZIPCODE": "98499", "COUNTY": "053", "ZIP_TYPE": "Standard", "PREFERRED_CITY": "LAKEWOOD", "FEATURE_SOURCE": "Polygon Centroid", "COUNTY_NAME": "Pierce County" }, "geometry": { "type": "Point", "coordinates": [ -122.50646509062436, 47.166543448995228 ] } },
{ "type": "Feature", "properties": { "OBJECTID": 255, "ZIP": 98580, "ZIPCODE": "98580", "COUNTY": "053", "ZIP_TYPE": "Standard", "PREFERRED_CITY": "ROY", "FEATURE_SOURCE": "Polygon Centroid", "COUNTY_NAME": "Pierce County" }, "geometry": { "type": "Point", "coordinates": [ -122.466315758434433, 46.94028309622913 ] } },
{ "type": "Feature", "properties": { "OBJECTID": 256, "ZIP": 98826, "ZIPCODE": "98826", "COUNTY": "007", "ZIP_TYPE": "Standard", "PREFERRED_CITY": "LEAVENWORTH", "FEATURE_SOURCE": "Polygon Centroid", "COUNTY_NAME": "Chelan County" }, "geometry": { "type": "Point", "coordinates": [ -120.879428096067755, 47.751341806016143 ] } },
{ "type": "Feature", "properties": { "OBJECTID": 257, "ZIP": 98922, "ZIPCODE": "98922", "COUNTY": "037", "ZIP_TYPE": "Standard", "PREFERRED_CITY": "CLE ELUM", "FEATURE_SOURCE": "Polygon Centroid", "COUNTY_NAME": "Kittitas County" }, "geometry": { "type": "Point", "coordinates": [ -120.832986681723028, 47.230916103058988 ] } },
{ "type": "Feature", "properties": { "OBJECTID": 258, "ZIP": 98925, "ZIPCODE": "98925", "COUNTY": "037", "ZIP_TYPE": "Standard", "PREFERRED_CITY": "EASTON", "FEATURE_SOURCE": "Polygon Centroid", "COUNTY_NAME": "Kittitas County" }, "geometry": { "type": "Point", "coordinates": [ -121.256274145693865, 47.227794956488005 ] } },
{ "type": "Feature", "properties": { "OBJECTID": 259, "ZIP": 98926, "ZIPCODE": "98926", "COUNTY": "037", "ZIP_TYPE": "Standard", "PREFERRED_CITY": "ELLENSBURG", "FEATURE_SOURCE": "Polygon Centroid", "COUNTY_NAME": "Kittitas County" }, "geometry": { "type": "Point", "coordinates": [ -120.220827565860333, 46.999354185761447 ] } },
{ "type": "Feature", "properties": { "OBJECTID": 260, "ZIP": 98934, "ZIPCODE": "98934", "COUNTY": "037", "ZIP_TYPE": "PO Box", "PREFERRED_CITY": "KITTITAS", "FEATURE_SOURCE": "Polygon Centroid", "COUNTY_NAME": "Kittitas County" }, "geometry": { "type": "Point", "coordinates": [ -120.418356236518619, 46.982704389399245 ] } },
{ "type": "Feature", "properties": { "OBJECTID": 261, "ZIP": 98940, "ZIPCODE": "98940", "COUNTY": "037", "ZIP_TYPE": "PO Box", "PREFERRED_CITY": "RONALD", "FEATURE_SOURCE": "Polygon Centroid", "COUNTY_NAME": "Kittitas County" }, "geometry": { "type": "Point", "coordinates": [ -121.128477049077546, 47.428123725991327 ] } },
{ "type": "Feature", "properties": { "OBJECTID": 262, "ZIP": 98941, "ZIPCODE": "98941", "COUNTY": "037", "ZIP_TYPE": "PO Box", "PREFERRED_CITY": "ROSLYN", "FEATURE_SOURCE": "Polygon Centroid", "COUNTY_NAME": "Kittitas County" }, "geometry": { "type": "Point", "coordinates": [ -121.021277217520151, 47.217070582770042 ] } },
{ "type": "Feature", "properties": { "OBJECTID": 263, "ZIP": 98943, "ZIPCODE": "98943", "COUNTY": "037", "ZIP_TYPE": "PO Box", "PREFERRED_CITY": "SOUTH CLE ELUM", "FEATURE_SOURCE": "Polygon Centroid", "COUNTY_NAME": "Kittitas County" }, "geometry": { "type": "Point", "coordinates": [ -120.951661036065332, 47.185599514002007 ] } },
{ "type": "Feature", "properties": { "OBJECTID": 264, "ZIP": 98946, "ZIPCODE": "98946", "COUNTY": "037", "ZIP_TYPE": "Standard", "PREFERRED_CITY": "THORP", "FEATURE_SOURCE": "Polygon Centroid", "COUNTY_NAME": "Kittitas County" }, "geometry": { "type": "Point", "coordinates": [ -120.740458201586378, 47.072660396310802 ] } },
{ "type": "Feature", "properties": { "OBJECTID": 265, "ZIP": 98950, "ZIPCODE": "98950", "COUNTY": "037", "ZIP_TYPE": "PO Box", "PREFERRED_CITY": "VANTAGE", "FEATURE_SOURCE": "Polygon Centroid", "COUNTY_NAME": "Kittitas County" }, "geometry": { "type": "Point", "coordinates": [ -119.965480442365092, 46.81165965880345 ] } }
]
}
